STAID	STANAME	CLASS	AGGECOREGI	DRAIN_SQKM	HUC02	LAT_GAGE	LNG_GAGE	MINLON	MAXLON	MINLAT	MAXLAT	AREA	PERIMETER	STATE	HCDN_2009	ACTIVE09	FLYRS1900	FLYRS1950	FLYRS1990
01011000	Allagash River near Allagash, Maine	Non-ref	NorthEast	3186.844	01	47.069611	-69.079544	-69.78279	-68.82428	46.21467	47.09817	3186830000.0	497160.0	ME	None	yes	78.0	60.0	20.0
01013500	Fish River near Fort Kent, Maine	Ref	NorthEast	2252.696	01	47.237394	-68.582642	-68.98642	-68.05286	46.66298	47.33566	2252690000.0	516060.0	ME	yes	yes	85.0	60.0	20.0
01015800	Aroostook River near Masardis, Maine	Non-ref	NorthEast	2313.755	01	46.523003	-68.371764	-69.17753	-68.02982	46.17599	46.61998	2313750000.0	504060.0	ME	None	yes	51.0	51.0	19.0
01016500	MACHIAS RIVER NEAR ASHLAND, ME	Non-ref	NorthEast	847.7721	01	46.628311	-68.434792	-69.09659	-68.4126	46.45936	46.80615	847769000.0	275640.0	ME	None	None	32.0	32.0	0.0
01017000	Aroostook River at Washburn, Maine	Non-ref	NorthEast	4278.907	01	46.777294	-68.157194	-69.17753	-68.02982	46.17599	46.99079	4278900000.0	667800.0	ME	None	yes	79.0	60.0	20.0
01017060	Hardwood Brook below Glidden Brk nr Caribou, Maine	Non-ref	NorthEast	14.8644	01	46.783611	-67.989167	-68.07093	-67.96579	46.73154	46.81663	14864400.0	23040.0	ME	None	yes	0.0	0.0	0.0
01017290	Little Madawaska River at Caribou, Maine	Non-ref	NorthEast	594.576	01	46.88861	-67.945	-68.37945	-67.85225	46.85947	47.18347	594569000.0	243840.0	ME	None	yes	1.0	1.0	1.0
01017550	Williams Brook at Phair, Maine	Ref	NorthEast	10.0323	01	46.628056	-67.953056	-68.01425	-67.92345	46.6041	46.6816	10032300.0	18600.0	ME	None	yes	9.0	9.0	9.0
01017960	Meduxnekeag R above S Br Medux. R nr Houlton, ME	Non-ref	NorthEast	226.2537	01	46.105	-67.881389	-68.13933	-67.8533	46.01271	46.24352	226253000.0	115380.0	ME	None	yes	6.0	6.0	6.0
01018000	Meduxnekeag River near Houlton, Maine	Non-ref	NorthEast	450.4734	01	46.104917	-67.866631	-68.13933	-67.77567	45.87875	46.24352	450471000.0	186600.0	ME	None	yes	47.0	39.0	6.0
01018009	Pearce Brook at Route 1 at Houlton, Maine	Non-ref	NorthEast	19.5192	01	46.11528	-67.84028	-67.86886	-67.7674	46.03271	46.14062	19519200.0	30840.0	ME	None	yes	1.0	1.0	1.0
01019000	Grand Lake Stream at Grand Lake Stream, Maine	Non-ref	NorthEast	620.6238	01	45.172522	-67.7688	-68.19765	-67.72638	45.10765	45.42932	620621000.0	199620.0	ME	None	yes	80.0	60.0	20.0
01021200	DENNYS RIVER AT DENNYSVILLE, ME	Non-ref	NorthEast	242.8407	01	44.901489	-67.247619	-67.53214	-67.21942	44.8723	45.15365	242841000.0	93051.8	ME	None	yes	51.0	51.0	17.0
01021470	Libby Brook near Northfield, Maine	Ref	NorthEast	16.1001	01	44.800833	-67.725	-67.81037	-67.6917	44.73873	44.82181	16100100.0	27660.0	ME	None	yes	9.0	9.0	9.0
01021480	Old Stream near Wesley, Maine	Ref	NorthEast	76.73849	01	44.936944	-67.736111	-67.86965	-67.70189	44.89571	45.08254	76738500.0	67980.0	ME	None	yes	11.0	11.0	11.0
01021500	Machias River at Whitneyville, Maine	Non-ref	NorthEast	1184.14	01	44.722994	-67.520478	-68.13394	-67.48435	44.69773	45.21147	1184130000.0	344760.0	ME	None	yes	70.0	35.0	7.0
01022260	Pleasant River near Epping, Maine	Ref	NorthEast	161.9937	01	44.697778	-67.787222	-68.05353	-67.76483	44.65305	44.92227	161992000.0	126240.0	ME	None	yes	18.0	18.0	9.0
01022330	Narraguagus River at Deblois, Maine	Ref	NorthEast	264.8124	01	44.740833	-68.013333	-68.24278	-67.91873	44.71865	45.03364	264812000.0	139620.0	ME	None	yes	5.0	5.0	5.0
01022500	Narraguagus River at Cherryfield, Maine	Ref	NorthEast	573.6006	01	44.607972	-67.935242	-68.24265	-67.85141	44.57186	45.02873	573599000.0	228780.0	ME	yes	yes	61.0	60.0	20.0
01023000	WEST BRANCH UNION RIVER AT AMHERST, ME	Ref	NorthEast	385.0974	01	44.840239	-68.372017	-68.4319	-68.13282	44.78624	45.16083	385093000.0	188760.0	ME	None	None	60.0	30.0	0.0
01027200	North Branch Penobscot River nr Pittston Farm, ME	Ref	NorthEast	582.0489	01	45.935278	-69.993611	-70.33681	-69.89061	45.90903	46.23743	582049000.0	182520.0	ME	None	yes	8.0	8.0	8.0
01029200	Seboeis River near Shin Pond, Maine	Ref	NorthEast	444.9492	01	46.143056	-68.633611	-68.86227	-68.38654	46.09287	46.38408	444945000.0	193920.0	ME	None	yes	11.0	11.0	11.0
01029500	East Branch Penobscot River at Grindstone, Maine	Non-ref	NorthEast	2816.295	01	45.730267	-68.589486	-69.7679	-68.38654	45.6758	46.48902	2816290000.0	625380.0	ME	None	yes	89.0	44.0	11.0
01030000	PENOBSCOT RIVER NEAR MATTAWAMKEAG, ME	Non-ref	NorthEast	8732.993	01	45.566333	-68.403664	-70.43781	-68.37636	45.49248	46.48902	8732990000.0	1048560.0	ME	None	None	51.0	42.0	2.0
01030500	Mattawamkeag River near Mattawamkeag, Maine	Ref	NorthEast	3676.172	01	45.500975	-68.305956	-68.57901	-67.67059	45.34614	46.28691	3676169999.99	544440.0	ME	yes	yes	75.0	60.0	20.0
01031300	Piscataquis River at Blanchard, Maine	Ref	NorthEast	304.3764	01	45.267222	-69.583889	-69.79183	-69.51536	45.1943	45.47336	304376000.0	137700.0	ME	None	yes	13.0	13.0	13.0
01031450	Kingsbury Stream at Abbot Village, Maine	Non-ref	NorthEast	239.0922	01	45.184444	-69.452222	-69.7549	-69.43064	45.05245	45.26866	239091000.0	117540.0	ME	None	yes	12.0	12.0	12.0
01031500	Piscataquis River near Dover-Foxcroft, Maine	Ref	NorthEast	769.0482	01	45.175008	-69.314697	-69.79183	-69.29154	45.05245	45.47336	769046000.0	256620.0	ME	yes	yes	107.0	60.0	20.0
01031510	Black Stream near Dover-Foxcroft, Maine	Ref	NorthEast	70.1046	01	45.150278	-69.236389	-69.31092	-69.04804	45.05187	45.184	70103700.0	69300.0	ME	None	yes	1.0	1.0	1.0
01033000	SEBEC RIVER AT SEBEC, ME	Non-ref	NorthEast	844.353	01	45.270256	-69.111733	-69.62405	-69.07952	45.19597	45.5926	844351000.0	258960.0	ME	None	None	66.0	42.0	4.0
01033500	PLEASANT RIVER NEAR MILO, ME	Ref	NorthEast	833.9643	01	45.282578	-69.003439	-69.44484	-68.92791	45.26113	45.65083	833962000.0	252240.0	ME	None	None	59.0	30.0	0.0
01034000	Piscataquis River at Medford, Maine	Non-ref	NorthEast	3011.229	01	45.260611	-68.868614	-69.79183	-68.82725	45.05187	45.65083	3011220000.0	466920.0	ME	None	yes	78.0	53.0	20.0
01034500	Penobscot River at West Enfield, Maine	Non-ref	NorthEast	17347.38	01	45.236175	-68.651383	-70.43781	-67.67059	45.05187	46.48902	17347400000.0	1556760.0	ME	None	yes	107.0	60.0	20.0
01035000	PASSADUMKEAG RIVER AT LOWELL, ME	Non-ref	NorthEast	779.4081	01	45.183936	-68.474425	-68.50757	-68.01937	44.97199	45.39598	779400000.0	260940.0	ME	None	None	64.0	30.0	0.0
01036500	KENDUSKEAG STREAM NEAR KENDUSKEAG, ME	Non-ref	NorthEast	391.4991	01	44.897144	-68.883683	-69.28398	-68.86012	44.78419	45.10967	391497000.0	178020.0	ME	None	None	38.0	30.0	0.0
01037380	Ducktrap River near Lincolnville, Maine	Ref	NorthEast	39.0231	01	44.329167	-69.060833	-69.16332	-69.03065	44.29657	44.42572	39023100.0	42900.0	ME	None	yes	11.0	11.0	11.0
01038000	Sheepscot River at North Whitefield, Maine	Non-ref	NorthEast	375.0849	01	44.222778	-69.593758	-69.64767	-69.26164	44.16579	44.51424	375085000.0	179460.0	ME	None	yes	71.0	60.0	20.0
01041000	KENNEBEC RIVER AT MOOSEHEAD, ME	Non-ref	NorthEast	3293.256	01	45.58485	-69.716964	-70.75299	-69.167	45.37795	45.9337	3293249999.99	574380.0	ME	None	None	63.0	33.0	0.0
01042500	Kennebec River at The Forks, Maine	Non-ref	NorthEast	4124.36	01	45.339708	-69.962058	-70.75299	-69.167	45.16446	45.9337	4124350000.0	585840.0	ME	None	yes	106.0	60.0	20.0
01043500	DEAD RIVER NEAR DEAD RIVER, ME	Non-ref	NorthEast	1343.69	01	45.230458	-70.199836	-70.84602	-70.0576	44.91199	45.45116	1343690000.0	332940.0	ME	None	None	43.0	33.0	0.0
01044550	Spencer Stream near Grand Falls, Maine	Ref	NorthEast	499.7628	01	45.313611	-70.241667	-70.65846	-70.18839	45.26205	45.54285	499759000.0	151080.0	ME	None	yes	10.0	10.0	10.0
01045000	DEAD RIVER AT THE FORKS, ME	Non-ref	NorthEast	2254.018	01	45.349056	-69.990189	-70.84602	-69.96985	44.91199	45.54285	2254010000.0	412620.0	ME	None	None	74.0	30.0	0.0
01046000	AUSTIN STREAM AT BINGHAM, ME	Ref	NorthEast	243.1584	01	45.065186	-69.880767	-69.9344	-69.6242	45.04434	45.27731	243155000.0	125460.0	ME	None	yes	39.0	21.0	1.0
01046500	Kennebec River at Bingham, Maine	Non-ref	NorthEast	7056.902	01	45.05205	-69.885506	-70.84602	-69.167	44.91199	45.9337	7056890000.0	817740.0	ME	None	yes	81.0	60.0	20.0
01047000	Carrabassett River near North Anson, Maine	Ref	NorthEast	909.0972	01	44.8692	-69.955103	-70.4147	-69.93022	44.75782	45.23675	909094000.0	255300.0	ME	yes	yes	88.0	60.0	20.0
01047150	Kennebec River near Madison, Maine	Non-ref	NorthEast	8433.685	01	44.778889	-69.886944	-70.84602	-69.167	44.75817	45.9337	8433680000.0	834540.0	ME	None	yes	0.0	0.0	0.0
01047200	Sandy River near Madrid, Maine	Ref	NorthEast	65.646	01	44.857778	-70.485278	-70.61358	-70.45019	44.77664	44.9336	65645100.0	57120.0	ME	None	yes	1.0	1.0	1.0
01048000	Sandy River near Mercer, Maine	Non-ref	NorthEast	1339.138	01	44.708169	-69.937592	-70.61335	-69.91338	44.42556	45.04475	1339130000.0	347160.0	ME	None	yes	72.0	52.0	20.0
01048220	East Branch Wesserunsett Stream near Athens, Maine	Ref	NorthEast	49.3893	01	44.9475	-69.656944	-69.76962	-69.59693	44.91247	45.11589	49389300.0	65760.0	ME	None	yes	1.0	1.0	1.0
01049000	Sebasticook River near Pittsfield, Maine	Non-ref	NorthEast	1488.607	01	44.716778	-69.413819	-69.71335	-69.04364	44.5965	45.17026	1488610000.0	420180.0	ME	None	yes	80.0	60.0	20.0
01049265	KENNEBEC RIVER AT NORTH SIDNEY, MAINE	Non-ref	NorthEast	14014.81	01	44.472339	-69.683989	-70.84567	-69.04243	44.34218	45.93699	14014800000.0	999682.0	ME	None	yes	24.0	24.0	13.0
01049500	Cobbosseecontee Stream at Gardiner, Maine	Non-ref	NorthEast	561.3147	01	44.229097	-69.778047	-70.09857	-69.75573	44.04641	44.48782	561314000.0	206520.0	ME	None	yes	98.0	48.0	20.0
01052500	Diamond River near Wentworth Location, NH	Ref	NorthEast	383.8234	01	44.877394	-71.057494	-71.36403	-71.03592	44.81533	45.14759	383823000.0	91066.2	NH	yes	yes	68.0	60.0	20.0
01053500	Androscoggin River at Errol, NH	Non-ref	NorthEast	2701.495	01	44.782558	-71.128686	-71.36138	-70.48627	44.56216	45.36766	2701490000.0	478860.0	NH	None	yes	103.0	60.0	20.0
01053600	Androscoggin River below Bog Brook at Cambridge NH	Non-ref	NorthEast	3047.351	01	44.666111	-71.181389	-71.36342	-70.48627	44.56216	45.36766	3047350000.0	477540.0	NH	None	yes	1.0	1.0	1.0
01054000	Androscoggin River near Gorham, NH	Non-ref	NorthEast	3527.626	01	44.435792	-71.190178	-71.36342	-70.48627	44.41492	45.36766	3527630000.0	542100.0	NH	None	yes	89.0	60.0	20.0
01054200	Wild River at Gilead, Maine	Ref	NorthEast	180.981	01	44.390444	-70.979644	-71.20028	-70.90911	44.20562	44.41114	180981000.0	91380.0	ME	yes	yes	45.0	45.0	20.0
01054300	Ellis River at South Andover, Maine	Ref	NorthEast	337.7295	01	44.593242	-70.733017	-70.9497	-70.59359	44.55131	44.80223	337730000.0	125820.0	ME	None	yes	27.0	27.0	8.0
01054500	Androscoggin River at Rumford, Maine	Non-ref	NorthEast	5349.329	01	44.551814	-70.544067	-71.3732	-70.47925	44.20571	45.36766	5349330000.0	686940.0	ME	None	yes	108.0	60.0	20.0
01055000	Swift River near Roxbury, Maine	Ref	NorthEast	250.641	01	44.642747	-70.588783	-70.79959	-70.4962	44.61302	44.87047	250639000.0	113700.0	ME	yes	yes	80.0	60.0	20.0
01055500	Nezinscot River at Turner Center, Maine	Non-ref	NorthEast	439.5051	01	44.269506	-70.229606	-70.58093	-70.18153	44.16643	44.49078	439503000.0	187140.0	ME	None	yes	63.0	55.0	15.0
01057000	Little Androscoggin River near South Paris, Maine	Ref	NorthEast	190.9188	01	44.303992	-70.539681	-70.76351	-70.44958	44.26373	44.43369	190919000.0	96960.0	ME	yes	yes	88.0	60.0	20.0
01058500	LITTLE ANDROSCOGGIN RIVER NEAR AUBURN, ME	Non-ref	NorthEast	851.4333	01	44.063872	-70.274069	-70.76365	-70.24659	43.9591	44.4336	851431000.0	251460.0	ME	None	None	42.0	33.0	0.0
01059000	Androscoggin River near Auburn, Maine	Non-ref	NorthEast	8444.24	01	44.072297	-70.208014	-71.37271	-69.92704	43.95904	45.36766	8444240000.0	739262.0	ME	None	yes	80.0	60.0	20.0
01059800	Collyer Brook near Gray, Maine	Non-ref	NorthEast	35.3142	01	43.917894	-70.316597	-70.40153	-70.28733	43.87168	43.99875	35314200.0	38940.0	ME	None	None	20.0	20.0	2.0
01060000	Royal River at Yarmouth, Maine	Non-ref	NorthEast	364.8285	01	43.79915	-70.178269	-70.42357	-70.02501	43.76988	44.07125	364828000.0	175680.0	ME	None	None	55.0	55.0	15.0
01064000	PRESUMPSCOT RIVER AT OUTLET OF SEBAGO LAKE, ME	Non-ref	NorthEast	1145.668	01	43.817528	-70.449936	-70.90121	-70.3859	43.71445	44.41126	1145670000.0	317580.0	ME	None	None	99.0	51.0	11.0
01064118	Presumpscot River at Westbrook, Maine	Non-ref	NorthEast	1554.034	01	43.686997	-70.347136	-70.90091	-70.26756	43.58657	44.41168	1554030000.0	407700.0	ME	None	None	20.0	20.0	6.0
01064300	ELLIS RIVER NEAR JACKSON, NH	Ref	NorthEast	27.4338	01	44.218956	-71.24924	-71.32699	-71.20647	44.18917	44.3027	27433800.0	31080.0	NH	None	None	40.0	40.0	15.0
01064400	LUCY BROOK NEAR NORTH CONWAY, NH	Ref	NorthEast	12.1707	01	44.070347	-71.172849	-71.2545	-71.14678	44.02184	44.09782	12170700.0	20460.0	NH	None	None	27.0	27.0	2.0
01064500	Saco River near Conway, NH	Non-ref	NorthEast	993.6964	01	43.990842	-71.090478	-71.51922	-71.03969	43.88489	44.30227	993696000.0	214440.0	NH	None	yes	86.0	60.0	20.0
01064801	BEARCAMP RIVER AT SOUTH TAMWORTH, NH	Ref	NorthEast	173.4003	01	43.830074	-71.287849	-71.54287	-71.24669	43.7549	43.96558	173400000.0	100440.0	NH	None	yes	16.0	16.0	16.0
01065000	OSSIPEE RIVER AT EFFINGHAM FALLS, NH	Non-ref	NorthEast	855.2583	01	43.795075	-71.059234	-71.54287	-70.97281	43.59166	43.98785	855258000.0	247200.0	NH	None	None	48.0	41.0	1.0
01065500	OSSIPEE RIVER AT CORNISH, ME	Non-ref	NorthEast	1172.306	01	43.807708	-70.797578	-71.54287	-70.75978	43.59166	43.98785	1172300000.0	310920.0	ME	None	None	80.0	47.0	7.0
01066000	Saco River at Cornish, Maine	Non-ref	NorthEast	3354.558	01	43.808039	-70.781539	-71.54287	-70.6752	43.59166	44.33269	3354550000.0	462000.0	ME	None	yes	93.0	60.0	20.0
01066500	LITTLE OSSIPEE RIVER NEAR SOUTH LIMINGTON, ME	Non-ref	NorthEast	423.9324	01	43.689436	-70.670556	-71.06698	-70.63487	43.51401	43.7932	423931000.0	167340.0	ME	None	None	42.0	33.0	0.0
01067950	Kennebunk River near Kennebunk, Maine	Ref	NorthEast	71.5041	01	43.43222	-70.55333	-70.71214	-70.53114	43.40428	43.54279	71504100.0	61920.0	ME	None	yes	1.0	1.0	1.0
01068910	Mousam River at Route 4 near Sanford, Maine	Non-ref	NorthEast	117.3636	01	43.41833	-70.73806	-70.95755	-70.71563	43.38835	43.60617	117364000.0	98160.0	ME	None	yes	1.0	1.0	1.0
01069500	MOUSAM RIVER NEAR WEST KENNEBUNK, ME	Non-ref	NorthEast	264.5136	01	43.418342	-70.658317	-70.95768	-70.63359	43.37899	43.6149	264512000.0	137760.0	ME	None	yes	45.0	35.0	0.0
01069700	Branch Brook near Kennebunk, Maine	Non-ref	NorthEast	27.9072	01	43.37917	-70.58333	-70.75137	-70.55903	43.35035	43.42696	27907200.0	42540.0	ME	None	yes	0.0	0.0	0.0
01072500	SALMON FALLS RIVER NEAR SOUTH LEBANON, ME	Non-ref	NorthEast	359.8155	01	43.328108	-70.927139	-71.13476	-70.89025	43.29686	43.64068	359815000.0	143160.0	ME	None	None	40.0	20.0	0.0
01072800	COCHECO RIVER NEAR ROCHESTER, NH.	Non-ref	NorthEast	243.9549	01	43.268415	-70.973674	-71.19791	-70.91844	43.23043	43.50108	243955000.0	125400.0	NH	None	yes	14.0	14.0	14.0
01072870	ISINGLASS R AT ROCHESTER NECK RD, NR DOVER, NH	Non-ref	NorthEast	191.9754	01	43.2348	-70.95645	-71.27061	-70.93614	43.17417	43.38617	191972000.0	128160.0	NH	None	yes	4.0	4.0	4.0
01073000	OYSTER RIVER NEAR DURHAM, NH	Ref	NorthEast	31.2984	01	43.148696	-70.96506	-71.07547	-70.92403	43.10342	43.20748	31298400.0	50700.0	NH	yes	yes	74.0	60.0	20.0
01073319	LAMPREY RIVER AT LANGFORD ROAD, AT RAYMOND, NH	Non-ref	NorthEast	144.3951	01	43.042307	-71.200618	-71.38353	-71.16316	43.0162	43.22985	144395000.0	104880.0	NH	None	yes	1.0	1.0	1.0
01073500	LAMPREY RIVER NEAR NEWMARKET, NH	Non-ref	NorthEast	471.1374	01	43.102586	-70.952559	-71.38353	-70.92787	42.98301	43.23977	471137000.0	169320.0	NH	None	yes	75.0	60.0	20.0
010735562	EXETER RIVER AT ODELL ROAD, NEAR SANDOWN, NH	Non-ref	NorthEast	42.7194	01	42.94898	-71.16478	-71.2997	-71.12803	42.87362	42.98567	42719400.0	58860.0	NH	None	yes	1.0	1.0	1.0
01073587	EXETER RIVER AT HAIGH ROAD, NEAR BRENTWOOD, NH	Non-ref	NorthEast	163.053	01	42.984532	-71.038392	-71.30925	-71.01683	42.87624	43.05296	163053000.0	116040.0	NH	None	yes	13.0	13.0	13.0
01073600	DUDLEY BROOK NEAR EXETER, NH	Non-ref	NorthEast	16.3845	01	42.993143	-71.021725	-71.11519	-70.99865	42.9563	43.04199	16384500.0	26160.0	NH	None	None	23.0	23.0	0.0
01073785	WINNICUT RIVER AT GREENLAND, NR PORTSMOUTH, NH	Non-ref	NorthEast	36.9495	01	43.036755	-70.84811	-70.91605	-70.79926	42.9377	43.06106	36949500.0	40980.0	NH	None	yes	7.0	7.0	7.0
01074520	EAST BRANCH PEMIGEWASSET RIVER AT LINCOLN, NH	Ref	NorthEast	297.1881	01	44.047567	-71.659803	-71.68681	-71.38046	43.98087	44.21905	297188000.0	115260.0	NH	None	yes	16.0	16.0	16.0
01075000	PEMIGEWASSET RIVER AT WOODSTOCK, NH	Non-ref	NorthEast	504.288	01	43.976179	-71.679524	-71.82788	-71.38046	43.93589	44.21905	504288000.0	158700.0	NH	None	yes	46.0	36.0	8.0
01075800	STEVENS BROOK NEAR WENTWORTH, NH	Ref	NorthEast	7.6743	01	43.836181	-71.885361	-71.90753	-71.82783	43.8147	43.89329	7674300.0	16860.0	NH	None	None	35.0	35.0	9.0
01076000	BAKER RIVER NEAR RUMNEY, NH	Non-ref	NorthEast	369.8154	01	43.795626	-71.845359	-72.05224	-71.76781	43.65687	44.05199	369815000.0	163380.0	NH	None	yes	57.0	36.0	8.0
01076500	PEMIGEWASSET RIVER AT PLYMOUTH, NH	Non-ref	NorthEast	1608.937	01	43.759239	-71.685634	-72.05247	-71.38088	43.65663	44.2192	1608940000.0	318480.0	NH	None	yes	106.0	60.0	20.0
01077000	SQUAM RIVER AT ASHLAND, NH	Non-ref	NorthEast	150.2946	01	43.705351	-71.629799	-71.66336	-71.43747	43.66188	43.84449	150295000.0	83760.0	NH	None	None	56.0	46.0	6.0
01077400	COCKERMOUTH RIVER BELOW HARDY BROOK, AT GROTON, NH	Ref	NorthEast	56.1951	01	43.70389	-71.83333	-71.94646	-71.79653	43.65016	43.77253	56195100.0	48000.0	NH	None	yes	1.0	1.0	1.0
01078000	SMITH RIVER NEAR BRISTOL, NH	Ref	NorthEast	222.4566	01	43.566463	-71.747857	-72.04295	-71.72004	43.44707	43.66856	222457000.0	116040.0	NH	yes	yes	91.0	60.0	20.0
01081000	WINNIPESAUKEE RIVER AT TILTON, NH	Non-ref	NorthEast	1216.967	01	43.441744	-71.587575	-71.63023	-71.05747	43.37619	43.84849	1216970000.0	319800.0	NH	None	yes	72.0	60.0	20.0
01081500	MERRIMACK RIVER AT FRANKLIN JUNCTION, NH	Non-ref	NorthEast	3908.064	01	43.422854	-71.652854	-72.05224	-71.05747	43.37507	44.21905	3908060000.0	592200.0	NH	None	yes	80.0	37.0	8.0
01082000	CONTOOCOOK RIVER AT PETERBOROUGH, NH	Non-ref	NorthEast	175.023	01	42.862584	-71.959246	-72.13694	-71.85892	42.72213	42.90286	175023000.0	106980.0	NH	None	yes	40.0	36.0	8.0
01083000	NUBANUSIT BK BLW MACDOWELL DAM NR PETERBOROUGH NH	Non-ref	NorthEast	116.8506	01	42.892861	-71.986747	-72.13695	-71.9576	42.82479	43.02826	116851000.0	78480.0	NH	None	None	54.0	40.0	0.0
01084000	NORTH BRANCH RIVER NEAR ANTRIM, NH	Non-ref	NorthEast	140.0814	01	43.081746	-71.978415	-72.16277	-71.95508	42.97632	43.26947	140081000.0	113400.0	NH	None	None	46.0	21.0	0.0
01084500	BEARD BROOK NEAR HILLSBORO, NH	Ref	NorthEast	143.8074	01	43.114246	-71.926192	-72.10577	-71.89295	43.06345	43.26426	143807000.0	86040.0	NH	None	None	25.0	21.0	0.0
01085000	CONTOOCOOK RIVER NEAR HENNIKER, NH	Non-ref	NorthEast	950.0697	01	43.152024	-71.857301	-72.16277	-71.82066	42.72213	43.26947	950070000.0	235320.0	NH	None	None	38.0	28.0	0.0
01085500	CONTOOCOOK R BL HOPKINTON DAM AT W HOPKINTON, NH	Non-ref	NorthEast	1099.139	01	43.192857	-71.747299	-72.16277	-71.65333	42.72213	43.281	1099140000.0	303000.0	NH	None	yes	34.0	34.0	8.0
01085800	WEST BRANCH WARNER RIVER NEAR BRADFORD, NH	Ref	NorthEast	14.7681	01	43.259243	-72.025917	-72.09591	-72.00414	43.2188	43.30687	14768100.0	22200.0	NH	None	None	42.0	42.0	15.0
01086000	WARNER RIVER AT DAVISVILLE, NH	Ref	NorthEast	381.5766	01	43.251189	-71.7323	-72.09629	-71.69676	43.19046	43.44574	381576000.0	148380.0	NH	None	yes	47.0	37.0	8.0
01087000	BLACKWATER RIVER NEAR WEBSTER, NH	Non-ref	NorthEast	331.8507	01	43.297578	-71.693688	-72.04051	-71.67212	43.2756	43.54884	331851000.0	159420.0	NH	None	None	64.0	40.0	0.0
01088000	CONTOOCOOK RIVER AT PENACOOK, NH	Non-ref	NorthEast	1975.255	01	43.28619	-71.598407	-72.16277	-71.57256	42.72213	43.54884	1975250000.0	419640.0	NH	None	None	48.0	28.0	0.0
01089000	SOUCOOK RIVER NEAR CONCORD, NH	Non-ref	NorthEast	201.0753	01	43.238692	-71.462015	-71.57333	-71.34211	43.20163	43.46423	201075000.0	110340.0	NH	None	None	36.0	36.0	0.0
01089100	SOUCOOK RIVER, AT PEMBROKE ROAD, NEAR CONCORD, NH	Non-ref	NorthEast	214.1253	01	43.213692	-71.480348	-71.57333	-71.34211	43.19163	43.46423	214125000.0	119520.0	NH	None	yes	21.0	21.0	20.0
01089500	SUNCOOK RIVER AT NORTH CHICHESTER, NH	Non-ref	NorthEast	400.7988	01	43.256748	-71.369512	-71.42703	-71.09563	43.23422	43.53625	400799000.0	150000.0	NH	None	yes	50.0	22.0	1.0
01090800	PISCATAQUOG RIVER BL EVERETT DAM, NR E WEARE, NH	Non-ref	NorthEast	163.1421	01	43.091471	-71.659518	-71.89989	-71.58448	43.00876	43.19432	163141000.0	127620.0	NH	None	None	26.0	26.0	0.0
01091000	SOUTH BRANCH PISCATAQUOG RIVER NEAR GOFFSTOWN, NH	Ref	NorthEast	266.7591	01	43.014805	-71.641461	-71.90606	-71.61178	42.88105	43.10886	266759000.0	128460.0	NH	None	yes	39.0	30.0	1.0
01091500	PISCATAQUOG RIVER NEAR GOFFSTOWN, NH	Non-ref	NorthEast	519.1128	01	43.01675	-71.550625	-71.90606	-71.52964	42.88105	43.19432	519112000.0	174720.0	NH	None	None	39.0	29.0	0.0
01092000	MERRIMACK R NR GOFFS FALLS, BELOW MANCHESTER, NH	Non-ref	NorthEast	7987.65	01	42.948141	-71.4634	-72.16277	-71.05747	42.72213	44.21905	7987650000.0	849060.0	NH	None	yes	72.0	60.0	20.0
01093000	SUCKER BROOK AT AUBURN, NH	Non-ref	NorthEast	77.7456	01	43.005918	-71.348676	-71.44757	-71.24833	42.94301	43.12433	77745600.0	73020.0	NH	None	None	32.0	21.0	0.0
01093800	STONY BROOK TRIBUTARY NEAR TEMPLE, NH	Ref	NorthEast	9.3897	01	42.860085	-71.832854	-71.89927	-71.81047	42.83707	42.90715	9389700.0	16080.0	NH	None	None	41.0	41.0	15.0
01093852	SOUHEGAN RIVER (SITE WLR-1) NEAR MILFORD, NH	Non-ref	NorthEast	263.7036	01	42.84259	-71.70674	-71.93947	-71.68584	42.63262	42.95925	263704000.0	119580.0	NH	None	yes	2.0	2.0	2.0
01094000	SOUHEGAN RIVER AT MERRIMACK, NH	Non-ref	NorthEast	440.5014	01	42.857586	-71.506179	-71.93947	-71.47919	42.63262	42.95925	440501000.0	199140.0	NH	None	yes	75.0	35.0	8.0
01094400	NORTH NASHUA RIVER AT FITCHBURG, MA	Non-ref	NorthEast	166.1607	01	42.576201	-71.788129	-72.00194	-71.76521	42.46817	42.7015	166161000.0	111600.0	MA	None	yes	37.0	37.0	20.0
01094500	NORTH NASHUA RIVER NEAR LEOMINSTER, MA	Non-ref	NorthEast	279.657	01	42.501758	-71.722571	-72.00194	-71.68751	42.45967	42.7015	279657000.0	141480.0	MA	None	yes	74.0	60.0	20.0
01095220	STILLWATER RIVER NEAR STERLING, MA	Non-ref	NorthEast	78.68936	01	42.410925	-71.791183	-71.91806	-71.7574	42.37926	42.54513	78689400.0	53138.4	MA	None	yes	15.0	15.0	15.0
01095375	QUINAPOXET RIVER AT CANADA MILLS NEAR HOLDEN, MA	Non-ref	NorthEast	115.1919	01	42.37287	-71.828128	-71.97381	-71.78806	42.27868	42.49664	115192000.0	96420.0	MA	None	yes	12.0	12.0	12.0
01095505	NASHUA RIVER 0.4 MI UPSTREAM RT 110 AT CLINTON, MA	Non-ref	NorthEast	322.7157	01	42.429167	-71.680278	-71.97381	-71.63433	42.27868	42.54518	322716000.0	163560.0	MA	None	yes	2.0	2.0	2.0
01096000	SQUANNACOOK RIVER NEAR WEST GROTON, MA	Non-ref	NorthEast	173.1357	01	42.634256	-71.657848	-71.89133	-71.62343	42.59009	42.79288	173136000.0	104940.0	MA	None	yes	60.0	60.0	20.0
01096500	NASHUA RIVER AT EAST PEPPERELL, MA	Non-ref	NorthEast	1125.681	01	42.667589	-71.575068	-72.00194	-71.51288	42.27868	42.79288	1125680000.0	297180.0	MA	None	yes	74.0	60.0	20.0
01096503	NISSITISSIT RIVER AT PEPPERELL, MA	Ref	NorthEast	155.7549	01	42.672034	-71.577013	-71.80552	-71.54983	42.63203	42.83175	155755000.0	105120.0	MA	None	yes	3.0	3.0	3.0
010965852	BEAVER BROOK AT NORTH PELHAM, NH	Non-ref	NorthEast	123.0804	01	42.782866	-71.353674	-71.42275	-71.2304	42.7513	42.98317	123080000.0	98820.0	NH	None	yes	23.0	23.0	20.0
010965995	ASSABET RIVER, MILL ROAD NEAR WESTBORO, MA	Non-ref	NorthEast	17.7714	01	42.26944	-71.63333	-71.71002	-71.60275	42.20693	42.29589	17771400.0	25740.0	MA	None	yes	3.0	3.0	3.0
01096835	ASSABET RIVER AT PORT ST AT HUDSON, MA	Non-ref	NorthEast	154.1547	01	42.38528	-71.57778	-71.74219	-71.54155	42.20693	42.45793	154154000.0	106140.0	MA	None	yes	1.0	1.0	1.0
01096840	ASSABET RIVER 200 FT BELOW RT 85 AT HUDSON, MA	Non-ref	NorthEast	163.6155	01	42.39	-71.56972	-71.74219	-71.54155	42.20693	42.45793	163615000.0	111600.0	MA	None	yes	1.0	1.0	1.0
01096885	ASSABET RIVER AT SUDBURY RD NEAR STOW, MA	Non-ref	NorthEast	224.5284	01	42.41167	-71.50806	-71.74219	-71.46065	42.20693	42.45793	224528000.0	121080.0	MA	None	yes	1.0	1.0	1.0
01097000	ASSABET RIVER AT MAYNARD, MA	Non-ref	NorthEast	299.3094	01	42.432038	-71.449785	-71.74206	-71.40135	42.20799	42.53119	299309000.0	153360.0	MA	None	yes	68.0	60.0	20.0
01097300	NASHOBA BROOK NEAR ACTON, MA	Non-ref	NorthEast	30.8718	01	42.512593	-71.404228	-71.49243	-71.3655	42.4875	42.59954	30870900.0	37860.0	MA	None	yes	46.0	46.0	20.0
01097380	NASHOBA BROOK, COMMONWEALTH AVE AT W. CONCORD, MA	Non-ref	NorthEast	120.4119	01	42.45889	-71.39722	-71.5577	-71.35642	42.41226	42.59832	120412000.0	81900.0	MA	None	yes	2.0	2.0	2.0
01097480	SUDBURY RIVER AT ASHLAND, MA	Non-ref	NorthEast	90.8289	01	42.2601	-71.45645	-71.65299	-71.43484	42.17757	42.30986	90828900.0	74340.0	MA	None	yes	4.0	4.0	4.0
01098530	SUDBURY RIVER AT SAXONVILLE, MA	Non-ref	NorthEast	274.2327	01	42.325373	-71.397561	-71.65299	-71.3087	42.17757	42.38699	274233000.0	154980.0	MA	None	yes	29.0	29.0	20.0
01099500	CONCORD R BELOW R MEADOW BROOK, AT LOWELL, MA	Non-ref	NorthEast	1035.51	01	42.636758	-71.302005	-71.74206	-71.23128	42.17757	42.65887	1035510000.0	266160.0	MA	None	yes	72.0	60.0	20.0
01100000	MERRIMACK RIVER BL CONCORD RIVER AT LOWELL, MA	Non-ref	NorthEast	11983.35	01	42.645925	-71.298394	-72.16264	-71.05764	42.17754	44.21902	11983399999.9	898243.0	MA	None	yes	86.0	60.0	20.0
01100505	SPICKET RIVER AT NORTH SALEM, NH	Non-ref	NorthEast	42.8643	01	42.849255	-71.215061	-71.30979	-71.14159	42.82658	42.9426	42864300.0	54180.0	NH	None	yes	8.0	8.0	8.0
01100561	SPICKET RIVER NEAR METHUEN, MA	Non-ref	NorthEast	158.2974	01	42.743146	-71.208393	-71.33631	-71.11595	42.72204	42.9426	158297000.0	100080.0	MA	None	yes	4.0	4.0	4.0
01100600	SHAWSHEEN RIVER NEAR WILMINGTON, MA	Non-ref	NorthEast	96.4215	01	42.568149	-71.214779	-71.35791	-71.16981	42.40789	42.5923	96421500.0	87900.0	MA	None	yes	45.0	45.0	20.0
01100627	SHAWSHEEN RIVER AT BALMORAL STREET AT ANDOVER, MA	Non-ref	NorthEast	173.1114	01	42.671481	-71.149224	-71.34868	-71.09226	42.41823	42.69582	173111000.0	139440.0	MA	None	yes	3.0	3.0	3.0
01101000	PARKER RIVER AT BYFIELD, MA	Non-ref	NorthEast	55.4778	01	42.752869	-70.94561	-71.11239	-70.92113	42.66412	42.81623	55477800.0	72360.0	MA	None	yes	63.0	60.0	20.0
01101344	IPSWICH RIVER AT MILL STREET NR NORTH READING, MA	Non-ref	NorthEast	58.0671	01	42.56111	-71.11111	-71.23997	-71.08174	42.47788	42.63302	58067100.0	60420.0	MA	None	yes	2.0	2.0	2.0
01101500	IPSWICH RIVER AT SOUTH MIDDLETON, MA	Non-ref	NorthEast	115.2826	01	42.569539	-71.026997	-71.23963	-71.00328	42.47842	42.66682	115283000.0	74561.8999999	MA	None	yes	70.0	59.0	19.0
01102000	IPSWICH RIVER NEAR IPSWICH, MA	Non-ref	NorthEast	316.4265	01	42.659816	-70.893662	-71.23975	-70.85171	42.4785	42.72376	316426000.0	183960.0	MA	None	yes	79.0	60.0	20.0
01102345	SAUGUS RIVER AT SAUGUS IRONWORKS AT SAUGUS, MA	Non-ref	NorthEast	60.3816	01	42.46954	-71.006995	-71.14216	-70.97851	42.43665	42.57824	60381600.0	51154.9	MA	None	yes	15.0	15.0	15.0
01102500	ABERJONA RIVER AT WINCHESTER, MA	Non-ref	NorthEast	59.74671	01	42.447318	-71.138943	-71.22791	-71.07726	42.42029	42.56527	59746700.0	51655.8	MA	None	yes	70.0	60.0	20.0
01103025	ALEWIFE BROOK NEAR ARLINGTON, MA	Non-ref	NorthEast	21.5235	01	42.407041	-71.133942	-71.21533	-71.09018	42.35301	42.43531	21523500.0	29340.0	MA	None	yes	1.0	1.0	1.0
01103220	MISCOE BROOK NEAR FRANKLIN, MA	Non-ref	NorthEast	3.033	01	42.04093	-71.42673	-71.47089	-71.39687	42.01008	42.06669	3033000.0	11220.0	MA	None	yes	9.0	9.0	9.0
01103280	CHARLES RIVER AT MEDWAY, MA	Non-ref	NorthEast	169.119	01	42.13982	-71.389503	-71.56972	-71.36136	42.01008	42.25015	169119000.0	103800.0	MA	None	yes	11.0	11.0	11.0
01103455	TROUT BROOK AT DOVER, MA	Non-ref	NorthEast	9.7065	01	42.25399	-71.29339	-71.33455	-71.24835	42.19747	42.27488	9706500.0	21600.0	MA	None	yes	2.0	2.0	2.0
01103500	CHARLES RIVER AT DOVER, MA	Non-ref	NorthEast	473.3199	01	42.256209	-71.260056	-71.56972	-71.22668	42.00577	42.37455	473320000.0	201720.0	MA	None	yes	72.0	60.0	20.0
01104200	CHARLES RIVER AT WELLESLEY, MA	Non-ref	NorthEast	548.3745	01	42.316486	-71.227833	-71.56972	-71.1269	42.00577	42.37455	548375000.0	255840.0	MA	None	yes	50.0	50.0	20.0
01104430	HOBBS BK BELOW CAMBRIDGE RES NR KENDALL GREEN, MA	Non-ref	NorthEast	17.4951	01	42.398151	-71.27339	-71.32791	-71.22045	42.37649	42.47379	17495100.0	31620.0	MA	None	yes	12.0	12.0	12.0
01104460	STONY BROOK AT RT 20 AT WALTHAM, MA	Non-ref	NorthEast	57.1176	01	42.368985	-71.270612	-71.35385	-71.22045	42.33143	42.47379	57117600.0	52920.0	MA	None	yes	8.0	8.0	8.0
01104475	STONY BROOK RES., UNNAMED TRIB 1, NEAR WESTON, MA	Non-ref	NorthEast	2.0808	01	42.354541	-71.268112	-71.31494	-71.24693	42.3288	42.38399	2080800.0	8580.0	MA	None	yes	5.0	5.0	5.0
01104500	CHARLES RIVER AT WALTHAM, MA	Non-ref	NorthEast	647.4123	01	42.372319	-71.233667	-71.56972	-71.1269	42.00577	42.47379	647412000.0	283980.0	MA	None	yes	78.0	60.0	20.0
01105000	NEPONSET RIVER AT NORWOOD, MA	Non-ref	NorthEast	84.8778	01	42.177599	-71.200886	-71.31493	-71.18083	42.05516	42.25524	84877800.0	56965.8	MA	None	yes	70.0	60.0	20.0
01105500	EAST BRANCH NEPONSET RIVER AT CANTON, MA	Non-ref	NorthEast	60.7122	01	42.154544	-71.145884	-71.2364	-71.04044	42.07985	42.20687	60712200.0	64140.0	MA	None	yes	57.0	57.0	20.0
01105554	NEPONSET RIVER AT GREENLODGE ST NEAR CANTON, MA	Non-ref	NorthEast	220.7016	01	42.209266	-71.145885	-71.31491	-71.04044	42.04915	42.25822	220702000.0	118920.0	MA	None	yes	5.0	5.0	5.0
011055566	NEPONSET RIVER AT MILTON VILLAGE, MA	Non-ref	NorthEast	271.8387	01	42.27093	-71.06838	-71.31491	-71.0261	42.04915	42.3032	271839000.0	164940.0	MA	None	yes	12.0	12.0	12.0
01105583	MONATIQUOT RIVER AT EAST BRAINTREE, MA	Non-ref	NorthEast	73.5768	01	42.220933	-70.978103	-71.14033	-70.957	42.09569	42.25093	73576800.0	72960.0	MA	None	yes	3.0	3.0	3.0
01105585	TOWN BROOK AT QUINCY, MA	Non-ref	NorthEast	11.1312	01	42.247877	-70.99727	-71.0726	-70.97508	42.18989	42.27369	11131200.0	24960.0	MA	None	yes	25.0	25.0	11.0
01105600	OLD SWAMP RIVER NEAR SOUTH WEYMOUTH, MA	Non-ref	NorthEast	12.6603	01	42.190378	-70.944768	-70.97726	-70.87469	42.11828	42.21117	12659400.0	28500.0	MA	None	yes	43.0	43.0	20.0
01105638	WEIR RIVER AT LEAVITT STREET AT HINGHAM, MA	Non-ref	NorthEast	39.2292	01	42.23482	-70.87199	-70.95627	-70.81319	42.14179	42.25899	39228300.0	46920.0	MA	None	yes	3.0	3.0	3.0
01105730	INDIAN HEAD RIVER AT HANOVER, MA	Non-ref	NorthEast	79.5672	01	42.100657	-70.822541	-70.98335	-70.80215	42.01979	42.19182	79567200.0	81060.0	MA	None	yes	43.0	43.0	20.0
01105870	JONES RIVER AT KINGSTON, MA	Non-ref	NorthEast	55.1439	01	41.990936	-70.733649	-70.84227	-70.71221	41.92924	42.07761	55143900.0	54900.0	MA	None	yes	42.0	42.0	19.0
011058756	EEL RIVER AT RUSSELL MILL RD NEAR PLYMOUTH, MA	Non-ref	SECstPlain	11.502	01	41.9176	-70.62642	-70.68217	-70.60076	41.85625	41.95988	11500200.0	28260.0	MA	None	yes	2.0	2.0	2.0
01105876	EEL RIVER AT RT 3A NEAR PLYMOUTH, MA	Non-ref	SECstPlain	34.9497	01	41.94177	-70.622534	-70.6821	-70.56145	41.85384	41.96201	34949700.0	37620.0	MA	None	yes	4.0	4.0	3.0
01105880	HERRING RIVER AT NORTH HARWICH, MA	Non-ref	SECstPlain	25.5222	01	41.700111	-70.106962	-70.13994	-69.99586	41.67753	41.7748	25522200.0	43020.0	MA	None	yes	24.0	24.0	2.0
01105917	MATTAPOISETT RIVER NEAR MATTAPOISETT, MA	Non-ref	NorthEast	61.272	01	41.662604	-70.83837	-70.92579	-70.80037	41.63513	41.83313	61272000.0	74280.0	MA	None	yes	3.0	3.0	3.0
01105933	PASKAMANSET RIVER NEAR SOUTH DARTMOUTH, MA	Non-ref	NorthEast	68.0985	01	41.585382	-70.990317	-71.05851	-70.91164	41.55973	41.75462	68098500.0	73680.0	MA	None	yes	14.0	14.0	14.0
01106000	ADAMSVILLE BROOK AT ADAMSVILLE, RI	Non-ref	NorthEast	22.06624	01	41.558437	-71.12921	-71.18849	-71.08834	41.53479	41.6499	22066200.0	23172.8	RI	None	None	38.0	29.0	0.0
01106500	MATFIELD RIVER AT ELMWOOD, MA	Non-ref	NorthEast	104.4702	01	42.01538	-70.96115	-71.1113	-70.90685	41.98322	42.1804	104470000.0	86520.0	MA	None	yes	2.0	2.0	2.0
01108000	TAUNTON RIVER NEAR BRIDGEWATER, MA	Non-ref	NorthEast	677.6388	01	41.93399	-70.956431	-71.1691	-70.69194	41.70407	42.1804	677639000.0	295800.0	MA	None	yes	61.0	41.0	13.0
01108320	CANOE RIVER NEAR NORTON, MA	Non-ref	NorthEast	57.8601	01	41.97732	-71.14394	-71.23539	-71.12222	41.94054	42.13951	57860100.0	70860.0	MA	None	yes	3.0	3.0	3.0
01108410	MILL RIVER AT SPRING STREET AT TAUNTON, MA	Non-ref	NorthEast	122.022	01	41.899823	-71.08949	-71.23254	-71.05209	41.87815	42.13784	122022000.0	90600.0	MA	None	yes	2.0	2.0	2.0
01108500	WADING RIVER AT WEST MANSFIELD, MA	Non-ref	NorthEast	51.7797	01	42.000099	-71.260053	-71.36379	-71.2292	41.97437	42.11399	51779700.0	60480.0	MA	None	None	33.0	33.0	0.0
01109000	WADING RIVER NEAR NORTON, MA	Non-ref	NorthEast	112.7429	01	41.9476	-71.176716	-71.36376	-71.15202	41.87632	42.11408	112743000.0	84534.8999999	MA	None	yes	84.0	60.0	20.0
01109060	THREEMILE RIVER AT NORTH DIGHTON, MA	Non-ref	NorthEast	220.1049	01	41.866212	-71.122824	-71.36379	-71.09291	41.84147	42.13419	220105000.0	151620.0	MA	None	yes	43.0	43.0	20.0
01109070	SEGREGANSET RIVER NEAR DIGHTON, MA	Non-ref	NorthEast	27.1674	01	41.840379	-71.142824	-71.22009	-71.12058	41.81326	41.93281	27167400.0	33720.0	MA	None	yes	42.0	42.0	19.0
01109090	RATTLESNAKE BROOK NEAR ASSONET, MA	Ref	NorthEast	12.771	01	41.77677	-71.08921	-71.11793	-71.03369	41.70001	41.79753	12771000.0	23460.0	MA	None	yes	2.0	2.0	2.0
01109220	PALMER RIVER AT SOUTH REHOBOTH, MA	Non-ref	NorthEast	78.93089	01	41.80927	-71.27783	-71.33889	-71.17345	41.77564	41.93494	78930900.0	69840.0	MA	None	yes	3.0	3.0	3.0
01109403	TEN MILE RIVER AT PAWTUCKET AVE @ E PROVIDENCE, RI	Non-ref	NorthEast	137.592	01	41.830934	-71.351165	-71.39614	-71.23117	41.80105	42.0598	137592000.0	110280.0	RI	None	yes	23.0	23.0	20.0
01109500	KETTLE BROOK AT WORCESTER, MA	Non-ref	NorthEast	82.224	01	42.232038	-71.834794	-71.95307	-71.76845	42.11447	42.33959	82224000.0	81060.0	MA	None	None	55.0	29.0	0.0
01109730	BLACKSTONE RIVER, W. MAIN ST., AT MILLBURY, MA	Non-ref	NorthEast	185.7519	01	42.188984	-71.76507	-71.95307	-71.74165	42.11447	42.35926	185752000.0	109560.0	MA	None	yes	7.0	7.0	7.0
01110000	QUINSIGAMOND RIVER AT NORTH GRAFTON, MA	Non-ref	NorthEast	66.08279	01	42.230372	-71.710902	-71.81575	-71.68994	42.19363	42.37075	66082800.0	52158.1	MA	None	yes	70.0	60.0	20.0
01110500	BLACKSTONE RIVER AT NORTHBRIDGE, MA	Non-ref	NorthEast	363.5217	01	42.153707	-71.652011	-71.95307	-71.62073	42.0987	42.37076	363522000.0	154140.0	MA	None	None	45.0	36.0	8.0
01111050	MUMFORD RIVER AT UXBRIDGE, MA	Non-ref	NorthEast	145.3851	01	42.0751	-71.62479	-71.84708	-71.60412	42.01782	42.18865	145385000.0	89640.0	MA	None	yes	4.0	4.0	4.0
01111200	WEST RIVER BELOW WEST HILL DAM, NR UXBRIDGE, MA	Non-ref	NorthEast	72.3798	01	42.104819	-71.607287	-71.69875	-71.54852	42.08028	42.25854	72379800.0	62520.0	MA	None	yes	35.0	35.0	8.0
01111212	BLACKSTONE RIVER, RT 122 BRIDGE NEAR UXBRIDGE, MA	Non-ref	NorthEast	631.4301	01	42.05482	-71.616454	-71.95307	-71.53933	42.01782	42.37076	631430000.0	211680.0	MA	None	yes	3.0	3.0	3.0
01111225	EMERSON BROOK NEAR UXBRIDGE, MA	Non-ref	NorthEast	18.0576	01	42.04454	-71.62201	-71.72336	-71.60176	42.0079	42.08772	18057600.0	28500.0	MA	None	yes	2.0	2.0	2.0
01111300	NIPMUC RIVER NEAR HARRISVILLE, RI	Non-ref	NorthEast	41.0625	01	41.981209	-71.685901	-71.78904	-71.6312	41.96128	42.06717	41062500.0	44340.0	RI	None	yes	43.0	43.0	18.0
01111500	BRANCH RIVER AT FORESTDALE, RI	Non-ref	NorthEast	237.2391	01	41.996487	-71.562563	-71.80105	-71.53286	41.83455	42.06733	237239000.0	133800.0	RI	None	yes	69.0	60.0	20.0
01112500	BLACKSTONE RIVER AT WOONSOCKET, RI	Non-ref	NorthEast	1047.424	01	42.006209	-71.503117	-71.95307	-71.46127	41.83455	42.37076	1047420000.0	303480.0	RI	None	yes	80.0	60.0	20.0
01113695	CATAMINT BROOK AT CUMBERLAND, RI	Non-ref	NorthEast	10.6497	01	41.9851	-71.41367	-71.47119	-71.38742	41.96492	42.0666	10649700.0	31920.0	RI	None	yes	10.0	10.0	10.0
01113895	BLACKSTONE R AT ROOSEVELT ST AT PAWTUCKET RI	Non-ref	NorthEast	1247.535	01	41.888711	-71.381445	-71.95307	-71.334	41.83455	42.37076	1247530000.0	371820.0	RI	None	yes	5.0	5.0	5.0
01114000	MOSHASSUCK RIVER AT PROVIDENCE, RI	Non-ref	NorthEast	60.42774	01	41.833989	-71.411168	-71.51238	-71.36765	41.81246	41.95818	60427700.0	39091.7	RI	None	yes	45.0	45.0	19.0
01114500	WOONASQUATUCKET RIVER AT CENTERDALE, RI	Non-ref	NorthEast	98.8735	01	41.858988	-71.487282	-71.64235	-71.45519	41.81922	41.99519	98873500.0	62007.8	RI	None	yes	68.0	60.0	20.0
01115098	PEEPTOAD BROOK AT ELMDALE RD NR NORTH SCITUATE, RI	Non-ref	NorthEast	13.3569	01	41.852599	-71.606175	-71.67512	-71.57683	41.82935	41.93052	13356900.0	29460.0	RI	None	yes	15.0	15.0	15.0
01115187	PONAGANSET RIVER AT SOUTH FOSTER, RI	Non-ref	NorthEast	38.8251	01	41.81871	-71.705068	-71.81003	-71.67901	41.79056	41.91147	38825100.0	44100.0	RI	None	yes	15.0	15.0	15.0
01115630	NOOSENECK RIVER AT NOOSENECK, RI	Ref	NorthEast	21.7368	01	41.626767	-71.632565	-71.715	-71.61076	41.56908	41.69306	21736800.0	33780.0	RI	None	yes	19.0	19.0	2.0
01115670	CONGDON RIVER NEAR NOOSENECK, RI	Ref	NorthEast	10.899	01	41.612322	-71.622842	-71.67372	-71.57922	41.55752	41.63592	10899000.0	20520.0	RI	None	yes	3.0	3.0	3.0
01115770	CARR RIVER NEAR NOOSENECK, RI	Ref	NorthEast	18.9081	01	41.643156	-71.607842	-71.63358	-71.52515	41.59029	41.68407	18907200.0	30120.0	RI	None	yes	18.0	18.0	3.0
01116000	SOUTH BRANCH PAWTUXET RIVER AT WASHINGTON, RI	Non-ref	NorthEast	168.2577	01	41.6901	-71.565896	-71.74	-71.52515	41.55752	41.77391	168258000.0	95280.0	RI	None	yes	69.0	60.0	20.0
01116500	PAWTUXET RIVER AT CRANSTON, RI	Non-ref	NorthEast	525.0195	01	41.750934	-71.445058	-71.81003	-71.41668	41.55752	41.93052	525019000.0	195660.0	RI	None	yes	68.0	59.0	19.0
01116905	HUNT R 250 FT DS FRY BRK AT FRENCHTOWN, RI	Non-ref	NorthEast	40.7619	01	41.63	-71.478889	-71.58248	-71.45353	41.56318	41.68579	40761900.0	41340.0	RI	None	yes	2.0	2.0	2.0
01117000	HUNT RIVER NEAR EAST GREENWICH, RI	Non-ref	NorthEast	59.6844	01	41.641212	-71.445335	-71.58248	-71.41449	41.55861	41.68579	59684400.0	55320.0	RI	None	yes	69.0	60.0	20.0
01117350	CHIPUXET RIVER AT WEST KINGSTON, RI	Non-ref	NorthEast	25.2135	01	41.482323	-71.551172	-71.57712	-71.46547	41.45981	41.57462	25213500.0	39300.0	RI	None	yes	37.0	37.0	20.0
01117370	QUEEN R AT LIBERTY RD AT LIBERTY RI	Ref	NorthEast	50.4774	01	41.53899	-71.568673	-71.62738	-71.49185	41.51606	41.64597	50477400.0	45960.0	RI	None	yes	11.0	11.0	11.0
01117420	USQUEPAUG RIVER NEAR USQUEPAUG, RI	Non-ref	NorthEast	93.1356	01	41.476767	-71.604785	-71.65604	-71.49185	41.45519	41.64597	93134700.0	69600.0	RI	None	yes	35.0	35.0	20.0
01117430	PAWCATUCK RIVER AT KENYON, RI	Non-ref	NorthEast	189.0441	01	41.446212	-71.621174	-71.65604	-71.46547	41.38313	41.64597	189042000.0	103260.0	RI	None	yes	5.0	5.0	4.0
01117468	BEAVER RIVER NEAR USQUEPAUG, RI	Ref	NorthEast	25.3413	01	41.4926	-71.628119	-71.68674	-71.59961	41.46684	41.6097	25341300.0	37620.0	RI	yes	yes	34.0	34.0	20.0
01117500	PAWCATUCK RIVER AT WOOD RIVER JUNCTION, RI	Non-ref	NorthEast	260.4375	01	41.4451	-71.680898	-71.70457	-71.46547	41.37891	41.64597	260437000.0	124200.0	RI	None	yes	68.0	60.0	20.0
01117800	WOOD RIVER NEAR ARCADIA, RI	Ref	NorthEast	90.76591	01	41.573988	-71.720623	-71.87105	-71.649	41.55423	41.69605	90765900.0	74760.0	RI	None	yes	43.0	43.0	19.0
01118000	WOOD RIVER AT HOPE VALLEY, RI	Non-ref	NorthEast	193.2111	01	41.498155	-71.716456	-71.87072	-71.6327	41.46935	41.70163	193211000.0	109440.0	RI	None	yes	68.0	60.0	20.0
01118300	PENDLETON HILL BROOK NEAR CLARKS FALLS, CT.	Ref	NorthEast	10.3644	01	41.474821	-71.834237	-71.88356	-71.79976	41.45363	41.53355	10364400.0	20640.0	CT	yes	yes	51.0	51.0	20.0
01118500	PAWCATUCK RIVER AT WESTERLY, RI	Non-ref	NorthEast	765.774	01	41.383711	-71.833125	-71.95315	-71.46547	41.32462	41.70163	765773000.0	255000.0	RI	None	yes	68.0	60.0	20.0
01119384	WILLIMANTIC RIVER NEAR MANSFIELD DEPOT, CT	Non-ref	NorthEast	255.6423	01	41.816111	-72.316944	-72.42372	-72.16427	41.79425	42.08462	255642000.0	137220.0	CT	None	yes	3.0	3.0	3.0
01119500	WILLIMANTIC RIVER NEAR COVENTRY, CT.	Non-ref	NorthEast	314.8461	01	41.750654	-72.265635	-72.42372	-72.16427	41.72831	42.08462	314846000.0	163980.0	CT	None	yes	78.0	60.0	20.0
01120000	HOP R NR COLUMBIA, CT.	Non-ref	NorthEast	192.8583	01	41.727599	-72.302303	-72.47396	-72.27667	41.65378	41.94534	192858000.0	112140.0	CT	None	None	39.0	22.0	0.0
01120500	SAFFORD BK NR WOODSTOCK VALLEY, CT.	Ref	NorthEast	6.6564	01	41.926486	-72.05702	-72.08087	-72.00008	41.90409	41.98417	6656400.0	18300.0	CT	None	None	31.0	31.0	0.0
01121000	MOUNT HOPE RIVER NEAR WARRENVILLE, CT.	Ref	NorthEast	70.25372	01	41.843709	-72.168966	-72.24699	-72.10039	41.81642	41.99387	70253700.0	53607.9	CT	yes	yes	69.0	60.0	20.0
01122000	NATCHAUG RIVER AT WILLIMANTIC, CT.	Non-ref	NorthEast	453.2904	01	41.719821	-72.195634	-72.30487	-72.0005	41.69786	42.05929	453290000.0	163080.0	CT	None	yes	73.0	54.0	14.0
01122500	SHETUCKET RIVER NEAR WILLIMANTIC, CT.	Non-ref	NorthEast	1048.47	01	41.700376	-72.182022	-72.47396	-72.0005	41.61825	42.08462	1048470000.0	252960.0	CT	None	yes	81.0	60.0	20.0
01123000	LITTLE RIVER NEAR HANOVER, CT.	Ref	NorthEast	77.85271	01	41.671765	-72.052298	-72.11882	-71.99415	41.64848	41.86584	77852700.0	75420.0	CT	yes	yes	58.0	58.0	20.0
011230695	SHETUCKET RIVER AT TAFTVILLE, CONN.	Non-ref	NorthEast	1330.078	01	41.56843	-72.04508	-72.47396	-71.99035	41.54311	42.08462	1330080000.0	303120.0	CT	None	yes	9.0	9.0	9.0
01123360	QUINEBAUG R BL E BRIMFIELD DAM AT FISKDALE, MA	Non-ref	NorthEast	162.2727	01	42.108706	-72.123688	-72.26443	-72.09111	41.97668	42.21378	162273000.0	88500.0	MA	None	yes	25.0	25.0	8.0
01123600	QUINEBAUG R BL WESTVILLE DAM NR SOUTHBRIDGE, MA	Non-ref	NorthEast	244.6191	01	42.082873	-72.05702	-72.26443	-72.01607	41.97668	42.21378	244619000.0	125400.0	MA	None	yes	34.0	34.0	7.0
01124000	QUINEBAUG RIVER AT QUINEBAUG, CT.	Non-ref	NorthEast	392.0004	01	42.022319	-71.955629	-72.26396	-71.92872	41.95619	42.21447	392000000.0	134887.0	CT	None	yes	77.0	59.0	19.0
01124151	QUINEBAUG R AT WEST THOMPSON, CONN.	Non-ref	NorthEast	433.9116	01	41.943431	-71.90035	-72.26443	-71.87253	41.91343	42.21472	433912000.0	213480.0	CT	None	yes	34.0	34.0	11.0
01124350	FRENCH RIVER BELOW DAM, AT HODGES VILLAGE, MA	Non-ref	NorthEast	80.4609	01	42.118429	-71.881183	-72.00124	-71.8106	42.09777	42.30126	80459100.0	86460.0	MA	None	yes	29.0	29.0	2.0
01124500	LITTLE RIVER NEAR OXFORD, MA	Non-ref	NorthEast	72.5976	01	42.115929	-71.890072	-72.00891	-71.86806	42.04556	42.22677	72597600.0	67740.0	MA	None	yes	52.0	42.0	2.0
01125000	FRENCH RIVER AT WEBSTER, MA	Non-ref	NorthEast	222.2319	01	42.05093	-71.885072	-72.00753	-71.79163	42.00192	42.30085	222232000.0	93829.5	MA	None	yes	33.0	33.0	1.0
01125100	FRENCH R AT N GROSVENORDALE, CT.	Non-ref	NorthEast	262.3277	01	41.97815	-71.90035	-72.00809	-71.79109	41.95776	42.30115	262328000.0	109316.0	CT	None	yes	7.0	7.0	7.0
01125500	QUINEBAUG RIVER AT PUTNAM, CT	Non-ref	NorthEast	839.9187	01	41.909264	-71.91285	-72.26443	-71.79093	41.87738	42.30126	839919000.0	268860.0	CT	None	yes	53.0	34.0	14.0
01126000	FIVEMILE R AT KILLINGLY, CT.	Non-ref	NorthEast	150.3765	01	41.837321	-71.88535	-71.91841	-71.72495	41.81387	42.0704	150376000.0	119340.0	CT	None	None	33.0	22.0	0.0
01126500	MOOSUP R AT MOOSUP, CT.	Non-ref	NorthEast	211.5153	01	41.710377	-71.885906	-71.91249	-71.67508	41.62159	41.8611	211515000.0	118620.0	CT	None	None	39.0	22.0	0.0
01127000	QUINEBAUG RIVER AT JEWETT CITY, CT.	Non-ref	NorthEast	1838.699	01	41.597876	-71.984242	-72.26396	-71.67065	41.46667	42.30115	1838700000.0	372239.0	CT	None	yes	90.0	59.0	19.0
01127500	YANTIC RIVER AT YANTIC, CT.	Non-ref	NorthEast	230.7345	01	41.558709	-72.121467	-72.35065	-72.08581	41.47331	41.71051	230735000.0	94487.3	CT	None	yes	79.0	60.0	20.0
01127880	BIG BROOK NEAR PITTSBURG, NH	Ref	NorthEast	16.9623	01	45.135046	-71.205908	-71.26769	-71.17243	45.11213	45.21188	16962300.0	25380.0	NH	None	None	20.0	20.0	0.0
01128500	CONNECTICUT R AT FIRST CONN LK NR PITTSBURG, NH	Non-ref	NorthEast	215.6517	01	45.087268	-71.292299	-71.31501	-71.05246	45.04097	45.27446	215652000.0	100380.0	NH	None	None	73.0	41.0	1.0
01129200	CONNECTICUT R BELOW INDIAN STREAM NR PITTSBURG, NH	Non-ref	NorthEast	658.7442	01	45.040324	-71.443971	-71.48635	-71.05246	44.92326	45.32221	658744000.0	179220.0	NH	None	yes	53.0	53.0	20.0
01130000	UPPER AMMONOOSUC RIVER NEAR GROVETON, NH	Ref	NorthEast	597.9547	01	44.625053	-71.468972	-71.52597	-71.16316	44.37382	44.84478	597955000.0	190500.0	NH	None	yes	62.0	53.0	15.0
01133000	EAST BRANCH PASSUMPSIC RIVER NEAR EAST HAVEN, VT	Non-ref	NorthEast	138.3021	01	44.633942	-71.897594	-72.02511	-71.78091	44.59943	44.79025	138302000.0	82860.0	VT	None	yes	49.0	42.0	12.0
01134500	MOOSE RIVER AT VICTORY, VT	Ref	NorthEast	195.1299	01	44.511723	-71.837314	-71.92787	-71.67769	44.46031	44.7152	195130000.0	97740.0	VT	yes	yes	62.0	60.0	20.0
01135000	MOOSE RIVER AT ST. JOHNSBURY, VT	Ref	NorthEast	334.305	01	44.422836	-72.000094	-72.02082	-71.67746	44.35358	44.71556	334305000.0	150720.0	VT	None	None	55.0	34.0	0.0
01135150	POPE BROOK (SITE W-3) NEAR NORTH DANVILLE, VT	Ref	NorthEast	10.1016	01	44.476167	-72.124543	-72.19881	-72.10123	44.45147	44.52155	10101600.0	20400.0	VT	None	yes	18.0	18.0	18.0
01135300	SLEEPERS RIVER (SITE W-5) NEAR ST. JOHNSBURY, VT	Ref	NorthEast	111.1173	01	44.435335	-72.038429	-72.20292	-72.00865	44.39461	44.55686	111117000.0	48514.4	VT	None	yes	19.0	19.0	19.0
01135500	PASSUMPSIC RIVER AT PASSUMPSIC, VT	Non-ref	NorthEast	1124.902	01	44.365615	-72.039261	-72.21493	-71.67746	44.33306	44.79025	1124900000.0	224280.0	VT	None	yes	80.0	60.0	20.0
01137500	AMMONOOSUC RIVER AT BETHLEHEM JUNCTION, NH	Ref	NorthEast	228.5543	01	44.268674	-71.630362	-71.65545	-71.28343	44.14827	44.33388	228554000.0	83161.1	NH	yes	yes	70.0	60.0	20.0
01138000	AMMONOOSUC RIVER NEAR BATH, NH	Ref	NorthEast	1026.288	01	44.153953	-71.985645	-72.04948	-71.28345	43.9969	44.38296	1026290000.0	265200.0	NH	None	None	45.0	31.0	0.0
01139000	WELLS RIVER AT WELLS RIVER, VT	Ref	NorthEast	246.3333	01	44.150341	-72.065092	-72.3778	-72.04397	44.10301	44.3421	246333000.0	88895.7	VT	yes	yes	69.0	60.0	20.0
01139800	EAST ORANGE BRANCH AT EAST ORANGE, VT	Ref	NorthEast	22.7997	01	44.092842	-72.335653	-72.42353	-72.31541	44.04776	44.15009	22799700.0	27000.0	VT	yes	yes	51.0	51.0	20.0
01141500	OMPOMPANOOSUC RIVER AT UNION VILLAGE, VT	Non-ref	NorthEast	338.4513	01	43.79007	-72.254813	-72.44834	-72.16565	43.75264	44.0128	338451000.0	113640.0	VT	None	None	49.0	40.0	0.0
01141800	MINK BROOK NEAR ETNA, NH	Ref	NorthEast	12.2805	01	43.702293	-72.187033	-72.21536	-72.12556	43.65523	43.7547	12280500.0	24300.0	NH	None	None	36.0	36.0	9.0
01142500	AYERS BROOK AT RANDOLPH, VT	Ref	NorthEast	82.16668	01	43.93451	-72.657882	-72.73761	-72.5893	43.91327	44.08759	82166700.0	42658.7	VT	yes	yes	69.0	59.0	20.0
01144000	WHITE RIVER AT WEST HARTFORD, VT	Ref	NorthEast	1790.244	01	43.714236	-72.418149	-73.0036	-72.3315	43.64593	44.12816	1790240000.0	227183.0	VT	yes	yes	93.0	60.0	20.0
01145000	MASCOMA RIVER AT WEST CANAAN, NH	Ref	NorthEast	208.1349	01	43.651183	-72.084808	-72.10951	-71.89034	43.57147	43.84561	208133000.0	104280.0	NH	None	None	39.0	29.0	0.0
01150500	MASCOMA RIVER AT MASCOMA, NH	Non-ref	NorthEast	397.6794	01	43.64896	-72.182033	-72.2065	-71.89047	43.50541	43.84564	397679000.0	152700.0	NH	None	None	81.0	55.0	15.0
01150900	OTTAUQUECHEE RIVER NEAR WEST BRIDGEWATER, VT	Ref	NorthEast	61.1667	01	43.622291	-72.75899	-72.85703	-72.72246	43.58475	43.73313	61166700.0	45360.0	VT	yes	yes	25.0	25.0	20.0
01151500	OTTAUQUECHEE RIVER AT NORTH HARTLAND, VT	Non-ref	NorthEast	576.1521	01	43.602571	-72.354258	-72.85703	-72.3292	43.48309	43.7507	576152000.0	175020.0	VT	None	yes	79.0	60.0	20.0
01152500	SUGAR RIVER AT WEST CLAREMONT, NH	Non-ref	NorthEast	700.3791	01	43.387573	-72.362034	-72.39798	-71.97062	43.20329	43.60034	700379000.0	202200.0	NH	None	yes	81.0	60.0	20.0
01153000	BLACK RIVER AT NORTH SPRINGFIELD, VT	Non-ref	NorthEast	411.5781	01	43.333407	-72.514813	-72.83131	-72.43163	43.31091	43.59451	411577000.0	160560.0	VT	None	None	59.0	40.0	0.0
01153500	WILLIAMS RIVER AT BROCKWAYS MILLS, VT	Ref	NorthEast	263.3301	01	43.208687	-72.517589	-72.78724	-72.49137	43.16536	43.38153	263330000.0	102900.0	VT	None	None	44.0	35.0	0.0
01153550	WILLIAMS RIVER NEAR ROCKINGHAM VT	Non-ref	NorthEast	289.5507	01	43.191743	-72.485089	-72.78719	-72.46215	43.14594	43.3869	289550000.0	121140.0	VT	None	yes	23.0	23.0	20.0
01154000	SAXTONS RIVER AT SAXTONS RIVER, VT	Ref	NorthEast	187.3278	01	43.137578	-72.488144	-72.76517	-72.46504	43.05628	43.24153	187328000.0	98220.0	VT	None	yes	50.0	41.0	8.0
01154500	CONNECTICUT RIVER AT NORTH WALPOLE, NH	Non-ref	NorthEast	14220.09	01	43.126189	-72.436755	-73.00165	-71.05246	43.05628	45.32221	14220100000.0	1275000.0	NH	None	yes	67.0	60.0	20.0
01155000	COLD RIVER AT DREWSVILLE, NH	Ref	NorthEast	215.4186	01	43.131744	-72.390366	-72.4169	-72.13704	43.07351	43.3302	215419000.0	112140.0	NH	None	None	38.0	29.0	0.0
01155500	WEST RIVER AT JAMAICA, VT	Non-ref	NorthEast	459.8118	01	43.108967	-72.775374	-73.02255	-72.71617	43.05559	43.40203	459812000.0	147900.0	VT	None	yes	57.0	54.0	14.0
01155910	WEST RIVER BELOW TOWNSHEND DAM NEAR TOWNSHEND, VT	Non-ref	NorthEast	723.2805	01	43.05119	-72.700094	-73.02255	-72.65344	42.96665	43.40203	723281000.0	182040.0	VT	None	yes	6.0	6.0	6.0
01156000	WEST RIVER AT NEWFANE, VT	Non-ref	NorthEast	792.0675	01	42.995358	-72.636481	-73.02255	-72.57924	42.96665	43.40203	792068000.0	210360.0	VT	None	None	65.0	40.0	0.0
01156500	CONNECTICUT RIVER AT VERNON, VT	Non-ref	NorthEast	16213.36	01	42.771471	-72.514256	-73.02255	-71.05246	42.73339	45.32221	16213400000.0	1389960.0	VT	None	None	29.0	24.0	0.0
01157000	ASHUELOT RIVER NEAR GILSUM, NH	Non-ref	NorthEast	182.5785	01	43.039246	-72.270086	-72.2937	-72.04862	43.01202	43.29619	182578000.0	105300.0	NH	None	yes	58.0	31.0	0.0
01158000	ASHUELOT RIVER BELOW SURRY MT DAM, NEAR KEENE, NH	Non-ref	NorthEast	263.925	01	42.994802	-72.311197	-72.39209	-72.04862	42.9735	43.29619	263925000.0	142200.0	NH	None	yes	58.0	54.0	14.0
01158600	OTTER BROOK BELOW OTTER BROOK DAM, NEAR KEENE, NH	Non-ref	NorthEast	122.3955	01	42.945914	-72.236751	-72.27176	-72.08178	42.92007	43.11627	122396000.0	71400.0	NH	None	yes	45.0	45.0	14.0
01160000	S BR ASHUELOT RIVER AT WEBB, NR MARLBOROUGH, NH	Non-ref	NorthEast	92.916	01	42.872027	-72.213695	-72.24812	-72.08698	42.75671	42.92597	92916000.0	59100.0	NH	None	yes	58.0	29.0	0.0
01160350	ASHUELOT RIVER AT WEST SWANZEY, NH	Non-ref	NorthEast	818.0181	01	42.871193	-72.327864	-72.41379	-72.04598	42.71976	43.29619	818018000.0	249960.0	NH	None	yes	15.0	15.0	15.0
01161000	ASHUELOT RIVER AT HINSDALE, NH	Non-ref	NorthEast	1089.694	01	42.785916	-72.4862	-72.5121	-72.04598	42.65848	43.29619	1089690000.0	293400.0	NH	None	yes	99.0	60.0	20.0
01161500	TARBELL BROOK NEAR WINCHENDON, MA	Non-ref	NorthEast	48.0375	01	42.712586	-72.085359	-72.14271	-72.01883	42.68953	42.83079	48037500.0	44880.0	MA	None	None	66.0	33.0	0.0
01162000	MILLERS RIVER NEAR WINCHENDON, MA	Non-ref	NorthEast	212.6241	01	42.684253	-72.083414	-72.14271	-71.8728	42.60632	42.83079	212624000.0	120060.0	MA	None	yes	93.0	60.0	20.0
01162500	PRIEST BROOK NEAR WINCHENDON, MA	Ref	NorthEast	49.70559	01	42.682586	-72.115081	-72.18955	-72.07555	42.66208	42.8518	49705600.0	50256.6	MA	yes	yes	90.0	60.0	20.0
01163200	OTTER RIVER AT OTTER RIVER, MA	Non-ref	NorthEast	88.44967	01	42.588421	-72.040912	-72.08885	-71.91979	42.4882	42.66044	88449700.0	53954.5	MA	None	yes	44.0	44.0	20.0
01164000	MILLERS RIVER AT SOUTH ROYALSTON, MA	Non-ref	NorthEast	491.5026	01	42.629809	-72.150359	-72.20144	-71.8728	42.4883	42.85149	491503000.0	208140.0	MA	None	yes	52.0	42.0	2.0
01165000	EAST BRANCH TULLY RIVER NEAR ATHOL, MA	Non-ref	NorthEast	129.5298	01	42.642308	-72.225639	-72.29074	-72.1145	42.60964	42.81761	129529000.0	85200.0	MA	None	yes	74.0	41.0	1.0
01165500	MOSS BROOK AT WENDELL DEPOT, MA	Ref	NorthEast	32.8572	01	42.602864	-72.35953	-72.4149	-72.307	42.58111	42.71217	32856300.0	36240.0	MA	None	None	66.0	33.0	0.0
01166500	MILLERS RIVER AT ERVING, MA	Non-ref	NorthEast	965.4553	01	42.597586	-72.438142	-72.47357	-71.8728	42.48007	42.85149	965455000.0	303540.0	MA	None	yes	94.0	60.0	20.0
01168151	DEERFIELD RIVER NEAR ROWE, MA	Non-ref	NorthEast	660.7206	01	42.682583	-72.976489	-73.10316	-72.76366	42.65977	43.11649	660721000.0	180840.0	MA	None	None	23.0	23.0	8.0
01168500	DEERFIELD RIVER AT CHARLEMONT, MA	Non-ref	NorthEast	938.5038	01	42.625918	-72.855096	-73.10316	-72.76366	42.51241	43.11649	938504000.0	242460.0	MA	None	yes	95.0	59.0	19.0
01169000	NORTH RIVER AT SHATTUCKVILLE, MA	Ref	NorthEast	230.6412	01	42.638418	-72.725092	-72.90102	-72.65839	42.60242	42.86376	230641000.0	101280.0	MA	yes	yes	69.0	60.0	20.0
01169900	SOUTH RIVER NEAR CONWAY, MA	Non-ref	NorthEast	62.30875	01	42.54203	-72.693702	-72.84321	-72.66552	42.44477	42.57021	62308700.0	46945.6	MA	None	yes	43.0	43.0	20.0
01170000	DEERFIELD RIVER NEAR WEST DEERFIELD, MA	Non-ref	NorthEast	1451.378	01	42.535919	-72.653423	-73.10316	-72.61332	42.4446	43.11649	1451380000.0	297120.0	MA	None	yes	68.0	59.0	19.0
01170100	GREEN RIVER NEAR COLRAIN, MA	Ref	NorthEast	106.9924	01	42.703417	-72.670648	-72.82934	-72.61985	42.67853	42.88642	106992000.0	61310.5	MA	yes	yes	42.0	42.0	20.0
01170500	CONNECTICUT RIVER AT MONTAGUE CITY, MA	Non-ref	NorthEast	20389.69	01	42.578697	-72.574533	-73.10047	-71.05136	42.44477	45.32233	20389700000.0	1286570.0	MA	None	yes	105.0	60.0	20.0
01170930	MILL RIVER AT CHRISTIAN LANE AT WHATELY, MA	Ref	NorthEast	47.097	01	42.44453	-72.62981	-72.74179	-72.58717	42.4113	42.54764	47097000.0	50460.0	MA	None	yes	3.0	3.0	3.0
01171300	FORT RIVER NEAR AMHERST, MA	Non-ref	NorthEast	107.6271	01	42.358424	-72.50592	-72.54111	-72.38182	42.28198	42.46325	107627000.0	56374.5	MA	None	None	30.0	30.0	7.0
01171500	MILL RIVER AT NORTHAMPTON, MA	Non-ref	NorthEast	139.7872	01	42.318978	-72.665091	-72.83137	-72.62793	42.29088	42.49814	139787000.0	74738.0	MA	None	yes	70.0	60.0	20.0
01172500	WARE RIVER NEAR BARRE, MA	Non-ref	NorthEast	142.6932	01	42.42509	-72.024521	-72.05508	-71.86704	42.31936	42.55025	142693000.0	102780.0	MA	None	yes	62.0	59.0	19.0
01173000	WARE RIVER AT INTAKE WORKS NEAR BARRE, MA	Non-ref	NorthEast	248.9728	01	42.390646	-72.060355	-72.14531	-71.86727	42.31949	42.583	248973000.0	109484.0	MA	None	yes	79.0	58.0	18.0
01173500	WARE RIVER AT GIBBS CROSSING, MA	Non-ref	NorthEast	510.3333	01	42.236204	-72.272581	-72.31241	-71.86704	42.19906	42.58305	510333000.0	230160.0	MA	None	yes	97.0	60.0	20.0
01174000	HOP BROOK NEAR NEW SALEM, MA	Ref	NorthEast	9.1512	01	42.478422	-72.334251	-72.38618	-72.30788	42.45784	42.53375	9151200.0	16680.0	MA	None	None	34.0	33.0	0.0
01174500	EAST BRANCH SWIFT RIVER NEAR HARDWICK, MA	Non-ref	NorthEast	113.0355	01	42.393424	-72.238693	-72.2695	-72.08847	42.36095	42.58247	113036000.0	88500.0	MA	None	yes	72.0	60.0	20.0
01174565	WEST BRANCH SWIFT RIVER NEAR SHUTESBURY, MA	Ref	NorthEast	32.994	01	42.455089	-72.381752	-72.43747	-72.33001	42.43335	42.5712	32994000.0	40500.0	MA	None	yes	15.0	15.0	14.0
01174600	CADWELL CREEK NEAR PELHAM, MA	Ref	NorthEast	1.6209	01	42.354535	-72.387862	-72.421	-72.36509	42.33382	42.39604	1620900.0	8040.0	MA	None	None	33.0	33.0	5.0
01174900	CADWELL CREEK NEAR BELCHERTOWN, MA	Ref	NorthEast	7.1064	01	42.335646	-72.369528	-72.42158	-72.3468	42.31024	42.39627	7106400.0	17940.0	MA	None	None	36.0	36.0	8.0
01175500	SWIFT RIVER AT WEST WARE, MA	Non-ref	NorthEast	489.9175	01	42.26787	-72.332582	-72.44716	-72.08849	42.24751	42.59679	489918000.0	153850.0	MA	None	yes	96.0	59.0	19.0
01175670	SEVENMILE RIVER NEAR SPENCER, MA	Non-ref	NorthEast	23.9517	01	42.265092	-72.004797	-72.04082	-71.95398	42.24412	42.3748	23951700.0	40380.0	MA	None	yes	47.0	47.0	19.0
01176000	QUABOAG RIVER AT WEST BRIMFIELD, MA	Non-ref	NorthEast	387.1593	01	42.182316	-72.263691	-72.29621	-71.89795	42.12409	42.3852	387159000.0	170700.0	MA	None	yes	96.0	59.0	19.0
01176780	TWELVEMILE BROOK NEAR NORTH WILBRAHAM, MA	Ref	NorthEast	35.3583	01	42.147872	-72.399528	-72.43144	-72.31838	42.06392	42.19145	35358300.0	37860.0	MA	None	yes	1.0	1.0	1.0
01177000	CHICOPEE RIVER AT INDIAN ORCHARD, MA	Non-ref	NorthEast	1785.374	01	42.160649	-72.513976	-72.53439	-71.86704	42.01511	42.59693	1785370000.0	399660.0	MA	None	yes	81.0	60.0	20.0
01179500	WESTFIELD RIVER AT KNIGHTVILLE, MA	Non-ref	NorthEast	422.1324	01	42.287867	-72.864264	-73.08827	-72.76266	42.26519	42.62917	422132000.0	164940.0	MA	None	yes	94.0	54.0	14.0
01180000	SYKES BROOK AT KNIGHTVILLE, MA	Ref	NorthEast	3.6072	01	42.290922	-72.870375	-72.91101	-72.8482	42.26966	42.34628	3607200.0	13500.0	MA	None	None	28.0	24.0	0.0
01180500	MIDDLE B WESTFIELD RIVER AT GOSS HEIGHTS, MA	Non-ref	NorthEast	136.6803	01	42.2587	-72.872597	-73.0736	-72.85212	42.23426	42.49733	136680000.0	96180.0	MA	None	yes	81.0	42.0	2.0
01181000	WEST BRANCH WESTFIELD RIVER AT HUNTINGTON, MA	Ref	NorthEast	243.495	01	42.237312	-72.895654	-73.18087	-72.87086	42.19119	42.43779	243494000.0	126240.0	MA	yes	yes	74.0	60.0	20.0
01183500	WESTFIELD RIVER NEAR WESTFIELD, MA	Non-ref	NorthEast	1292.801	01	42.10676	-72.698981	-73.18092	-72.65012	41.98415	42.62917	1292800000.0	355140.0	MA	None	yes	95.0	60.0	20.0
01184000	CONNECTICUT RIVER AT THOMPSONVILLE, CT.	Non-ref	NorthEast	25049.46	01	41.987319	-72.605367	-73.18101	-71.05136	41.95021	45.32233	25049500000.0	1466660.0	CT	None	yes	81.0	60.0	20.0
01184100	STONY BROOK NEAR WEST SUFFIELD, CT.	Non-ref	NorthEast	24.64571	01	41.960652	-72.710371	-72.76743	-72.67533	41.90136	42.04337	24645700.0	34123.6	CT	None	yes	28.0	28.0	20.0
01184490	BROAD BROOK AT BROAD BROOK, CT.	Non-ref	NorthEast	38.06368	01	41.913889	-72.55	-72.57173	-72.39794	41.878	41.97144	38063700.0	35469.0	CT	None	yes	42.0	42.0	20.0
01184500	SCANTIC R AT BROAD BROOK, CT.	Non-ref	NorthEast	253.0312	01	41.911764	-72.562866	-72.59163	-72.31368	41.87604	42.13979	253031000.0	98810.8	CT	None	None	43.0	22.0	0.0
01185500	WEST BRANCH FARMINGTON RIVER NEAR NEW BOSTON, MA	Non-ref	NorthEast	237.4254	01	42.079259	-73.072884	-73.20484	-72.98258	42.04195	42.32835	237425000.0	127920.0	MA	None	yes	96.0	60.0	20.0
01186000	WEST BRANCH FARMINGTON RIVER AT RIVERTON, CT	Non-ref	NorthEast	333.5841	01	41.962873	-73.017606	-73.20484	-72.95234	41.93903	42.32835	333584000.0	169380.0	CT	None	yes	53.0	53.0	19.0
01186500	STILL RIVER AT ROBERTSVILLE, CT.	Non-ref	NorthEast	221.4873	01	41.967317	-73.033996	-73.22237	-73.0065	41.81135	42.13559	221487000.0	138840.0	CT	None	yes	58.0	57.0	19.0
01187300	HUBBARD RIVER NR. WEST HARTLAND, CT.	Ref	NorthEast	53.919	01	42.037316	-72.938991	-73.06501	-72.90421	42.00695	42.14859	53919000.0	52440.0	MA	yes	yes	70.0	59.0	20.0
01187400	VALLEY BK NR WEST HARTLAND, CT.	Ref	NorthEast	19.1385	01	42.034261	-72.929824	-72.95465	-72.87448	42.01218	42.13321	19138500.0	31260.0	CT	None	None	32.0	23.0	0.0
01187800	NEPAUG R NR NEPAUG, CT.	Ref	NorthEast	61.5744	01	41.820653	-72.970104	-73.09778	-72.94367	41.76751	41.91632	61574400.0	66900.0	CT	None	None	52.0	24.0	3.0
01188000	BURLINGTON BROOK NEAR BURLINGTON, CT.	Ref	NorthEast	10.6235	01	41.786209	-72.964826	-73.03542	-72.94419	41.73274	41.81142	10623500.0	16856.7	CT	None	yes	77.0	59.0	19.0
01188090	FARMINGTON RIVER AT UNIONVILLE, CT.	Non-ref	NorthEast	977.783	01	41.755933	-72.886768	-73.22258	-72.84963	41.70035	42.32952	977783000.0	234286.0	CT	None	yes	31.0	31.0	19.0
01189000	PEQUABUCK R AT FORESTVILLE, CT.	Non-ref	NorthEast	116.4466	01	41.673154	-72.900657	-73.06208	-72.86877	41.61613	41.79026	116447000.0	60154.0	CT	None	yes	67.0	59.0	19.0
01189995	FARMINGTON RIVER AT TARIFFVILLE, CT.	Non-ref	NorthEast	1492.974	01	41.908431	-72.760651	-73.22258	-72.69714	41.61613	42.32951	1492970000.0	283918.0	CT	None	yes	38.0	38.0	20.0
01190000	FARMINGTON R AT RAINBOW, CT.	Non-ref	NorthEast	1522.522	01	41.911486	-72.687315	-73.22237	-72.64889	41.61613	42.32835	1522520000.0	385740.0	CT	None	None	58.0	37.0	0.0
01190500	SOUTH BRANCH PARK R AT HARTFORD, CT.	Non-ref	NorthEast	103.7043	01	41.733989	-72.713706	-72.85433	-72.68261	41.64241	41.81772	103704000.0	81960.0	CT	None	None	45.0	32.0	0.0
01191000	NORTH BRANCH PARK R AT HARTFORD, CT.	Non-ref	NorthEast	68.90754	01	41.784266	-72.708149	-72.82583	-72.67408	41.75522	41.91248	68907500.0	50589.0	CT	None	None	49.0	37.0	0.0
01192500	HOCKANUM RIVER NEAR EAST HARTFORD, CT.	Non-ref	NorthEast	190.6678	01	41.783155	-72.587311	-72.6109	-72.34664	41.71287	41.9815	190668000.0	92901.3999999	CT	None	yes	77.0	54.0	19.0
01192883	COGINCHAUG RIVER AT MIDDLEFIELD, CT	Non-ref	NorthEast	77.8588	01	41.520098	-72.705929	-72.76727	-72.61985	41.38503	41.54883	77858800.0	47391.7	CT	None	yes	28.0	28.0	20.0
01193500	SALMON RIVER NEAR EAST HAMPTON, CT.	Ref	NorthEast	271.2563	01	41.552321	-72.449253	-72.54454	-72.28299	41.50859	41.79843	271256000.0	102530.0	CT	None	yes	80.0	59.0	19.0
01194000	EIGHTMILE R AT NORTH PLAIN, CT.	Ref	NorthEast	52.3116	01	41.44177	-72.33286	-72.40008	-72.28315	41.4188	41.56783	52311600.0	48240.0	CT	None	yes	30.0	18.0	1.0
01194500	EAST BRANCH EIGHTMILE RIVER NEAR NORTH LYME, CT.	Ref	NorthEast	58.1454	01	41.427876	-72.33425	-72.35483	-72.21069	41.39989	41.56304	58145400.0	66480.0	CT	None	yes	51.0	39.0	7.0
01195100	INDIAN RIVER NEAR CLINTON, CT.	Ref	NorthEast	14.8383	01	41.305932	-72.531201	-72.59451	-72.50166	41.28377	41.3925	14838300.0	31560.0	CT	yes	yes	27.0	27.0	20.0
01195200	NECK R NR MADISON, CT.	Ref	NorthEast	18.7533	01	41.282598	-72.61926	-72.68458	-72.57824	41.26013	41.39478	18753300.0	44580.0	CT	None	None	20.0	20.0	0.0
01195490	QUINNIPIAC RIVER AT SOUTHINGTON, CT.	Non-ref	NorthEast	47.5542	01	41.601765	-72.883713	-72.92152	-72.78527	41.57705	41.71995	47554200.0	50760.0	CT	None	yes	21.0	21.0	20.0
01196500	QUINNIPIAC RIVER AT WALLINGFORD, CT.	Non-ref	NorthEast	285.7488	01	41.449542	-72.840934	-73.00432	-72.71805	41.42899	41.71999	285749000.0	130933.0	CT	None	yes	79.0	60.0	20.0
01196561	Muddy River near East Wallingford	Non-ref	NorthEast	22.0257	01	41.43565	-72.77926	-72.80268	-72.71009	41.40404	41.52042	22025700.0	31500.0	CT	None	yes	4.0	4.0	4.0
01196620	MILL R NR HAMDEN, CT.	Non-ref	NorthEast	63.81	01	41.420931	-72.90288	-72.98576	-72.83293	41.39166	41.54124	63810000.0	56220.0	CT	None	yes	33.0	33.0	20.0
01197000	EAST BRANCH HOUSATONIC RIVER AT COLTSVILLE, MA	Non-ref	NorthEast	149.5539	01	42.469529	-73.196492	-73.2177	-73.01413	42.35278	42.56657	149554000.0	96600.0	MA	None	yes	73.0	60.0	20.0
01197500	HOUSATONIC RIVER NEAR GREAT BARRINGTON, MA	Non-ref	NorthEast	732.8628	01	42.232033	-73.354833	-73.40274	-73.01413	42.16286	42.62287	732863000.0	269460.0	MA	None	yes	96.0	60.0	20.0
01198000	GREEN RIVER NEAR GREAT BARRINGTON, MA	Ref	NorthEast	132.2276	01	42.192034	-73.390669	-73.53359	-73.35081	42.15528	42.37746	132228000.0	68455.8999999	MA	None	yes	24.0	24.0	4.0
01198125	HOUSATONIC RIVER NR ASHLEY FALLS, MA.	Non-ref	NorthEast	1210.621	01	42.074814	-73.333449	-73.5329	-73.01413	41.97649	42.62287	1210620000.0	373620.0	MA	None	yes	4.0	4.0	4.0
01198500	BLACKBERRY R AT CANAAN, CT.	Non-ref	NorthEast	117.774	01	42.023981	-73.341784	-73.36777	-73.14665	41.9279	42.12573	117774000.0	102900.0	CT	None	None	22.0	22.0	0.0
01199000	HOUSATONIC RIVER AT FALLS VILLAGE, CT.	Non-ref	NorthEast	1643.036	01	41.957316	-73.369286	-73.5329	-73.01413	41.82657	42.62287	1643040000.0	408300.0	CT	None	yes	96.0	59.0	19.0
01199050	SALMON CREEK AT LIME ROCK, CT.	Non-ref	NorthEast	76.0986	01	41.942316	-73.390953	-73.51429	-73.36133	41.91021	42.07141	76098600.0	60360.0	CT	None	yes	47.0	47.0	19.0
01199200	GUINEA BK AT WEST WOODS RD AT ELLSWORTH, CT	Ref	NorthEast	9.0189	01	41.824261	-73.430122	-73.48339	-73.40278	41.78215	41.86606	9018000.0	20100.0	CT	None	None	21.0	21.0	0.0
01200000	TENMILE RIVER NEAR GAYLORDSVILLE, CT	Non-ref	NorthEast	532.5849	01	41.658983	-73.528458	-73.6948	-73.39658	41.5413	42.04704	532584000.0	229320.0	NY	None	yes	73.0	54.0	16.0
01200500	HOUSATONIC RIVER AT GAYLORDSVILLE, CT.	Non-ref	NorthEast	2583.356	01	41.65315	-73.489846	-73.69485	-73.01413	41.53536	42.62287	2583360000.0	568320.0	CT	None	yes	69.0	60.0	20.0
01201487	STILL RIVER AT ROUTE 7 AT BROOKFIELD CENTER, CT.	Non-ref	NorthEast	155.0745	01	41.466206	-73.403176	-73.56027	-73.31112	41.31589	41.49121	155074000.0	124800.0	CT	None	yes	7.0	7.0	7.0
01202501	SHEPAUG RIVER AT PETERS DAM AT WOODVILLE, CT	Non-ref	NorthEast	99.612	01	41.719263	-73.292895	-73.38326	-73.2045	41.69847	41.91505	99612000.0	84960.0	CT	None	yes	6.0	6.0	6.0
012035055	POOTATUCK RIVER AT BERKSHIRE	Non-ref	NorthEast	40.8159	01	41.406207	-73.272338	-73.35813	-73.21221	41.30377	41.4336	40815900.0	48060.0	CT	None	yes	3.0	3.0	3.0
01203510	POOTATUCK R AT SANDY HOOK, CT.	Non-ref	NorthEast	64.6902	01	41.42037	-73.28234	-73.36679	-73.21221	41.30377	41.45354	64689300.0	58020.0	CT	None	yes	10.0	10.0	2.0
01203600	NONEWAUG RIVER AT MINORTOWN, CT.	Non-ref	NorthEast	45.8748	01	41.575652	-73.178724	-73.23002	-73.11612	41.53804	41.70572	45874800.0	51480.0	CT	None	yes	23.0	23.0	8.0
01203805	WEEKEEPEEMEE RIVER AT HOTCHKISSVILLE, CT	Ref	NorthEast	70.0848	01	41.557596	-73.215114	-73.31571	-73.17777	41.53645	41.70081	70084800.0	61500.0	CT	None	yes	8.0	8.0	7.0
01204000	POMPERAUG RIVER AT SOUTHBURY, CT.	Non-ref	NorthEast	195.2595	01	41.480651	-73.224559	-73.31571	-73.11612	41.44051	41.70572	195260000.0	101940.0	CT	None	yes	76.0	59.0	19.0
01205500	HOUSATONIC RIVER AT STEVENSON, CT.	Non-ref	NorthEast	3998.594	01	41.383985	-73.167612	-73.69485	-73.01413	41.30377	42.62287	3998590000.0	709920.0	CT	None	yes	81.0	60.0	20.0
01205600	W BR NAUGATUCK R AT TORRINGTON, CT.	Non-ref	NorthEast	87.46471	01	41.80093	-73.123444	-73.25876	-73.10292	41.7721	41.97172	87464700.0	69480.0	CT	None	None	39.0	39.0	6.0
01205700	EAST BRANCH NAUGATUCK RIVER AT TORRINGTON, CONN	Non-ref	NorthEast	36.1809	01	41.80343	-73.117888	-73.19522	-73.07006	41.77634	41.96001	36180900.0	65220.0	CT	None	None	40.0	40.0	7.0
01206900	NAUGATUCK RIVER AT THOMASTON, CT.	Non-ref	NorthEast	260.7732	01	41.673708	-73.069553	-73.25876	-72.99114	41.64387	41.97172	260773000.0	136980.0	CT	None	yes	48.0	48.0	19.0
01208500	NAUGATUCK RIVER AT BEACON FALLS, CT.	Non-ref	NorthEast	674.4304	01	41.442319	-73.062608	-73.25923	-72.9262	41.41277	41.97179	674430000.0	194121.0	CT	None	yes	87.0	60.0	20.0
01208873	ROOSTER RIVER AT FAIRFIELD, CT	Non-ref	NorthEast	26.03027	01	41.179819	-73.219002	-73.27478	-73.18128	41.15713	41.30172	26030300.0	33417.7	CT	None	yes	31.0	31.0	19.0
01208925	MILL R NR FAIRFIELD, CT	Non-ref	NorthEast	74.5146	01	41.165652	-73.270393	-73.3388	-73.21658	41.1419	41.35615	74514600.0	70080.0	CT	None	yes	36.0	36.0	19.0
01208950	SASCO BROOK NEAR SOUTHPORT, CT.	Ref	NorthEast	19.2393	01	41.152874	-73.305949	-73.35243	-73.26594	41.1313	41.23854	19239300.0	27240.0	CT	None	yes	44.0	44.0	19.0
01208990	SAUGATUCK RIVER NEAR REDDING, CT.	Ref	NorthEast	53.77249	01	41.29454	-73.39512	-73.5507	-73.35835	41.259	41.38864	53772500.0	55650.5	CT	yes	yes	45.0	45.0	20.0
012095493	Ridgefield Brook at Shields Lane nr Ridgefield, CT	Non-ref	NorthEast	8.595	01	41.31423	-73.49248	-73.52284	-73.4486	41.25148	41.33564	8595000.0	19020.0	CT	None	yes	6.0	6.0	6.0
01209700	NORWALK R AT SOUTH WILTON, CT.	Non-ref	NorthEast	77.0724	01	41.163708	-73.419287	-73.52284	-73.37701	41.14328	41.34985	77072400.0	76680.0	CT	None	yes	47.0	47.0	20.0
01209761	FIVEMILE RIVER NEAR NEW CANAAN, CT.	Non-ref	NorthEast	3.3138	01	41.17454	-73.51151	-73.54166	-73.48461	41.15272	41.22595	3313800.0	11820.0	CT	None	yes	9.0	9.0	9.0
01209901	RIPPOWAM RIVER AT STAMFORD, CT.	Non-ref	NorthEast	78.55923	01	41.065652	-73.54929	-73.61897	-73.4812	41.03852	41.31537	78559200.0	83105.7	CT	None	yes	13.0	13.0	8.0
01300000	BLIND BROOK AT RYE NY	Non-ref	NorthEast	24.1038	02	40.983709	-73.687351	-73.74164	-73.64557	40.96287	41.10438	24103800.0	39300.0	NY	None	None	45.0	40.0	0.0
01300500	BEAVER SWAMP BROOK AT MAMARONECK NY	Non-ref	NorthEast	11.7243	02	40.955932	-73.718186	-73.75195	-73.67268	40.93473	41.02743	11724300.0	22800.0	NY	None	None	45.0	40.0	0.0
01301000	MAMARONECK RIVER AT MAMARONECK NY	Non-ref	NorthEast	58.20592	02	40.954543	-73.734575	-73.80648	-73.68534	40.92119	41.09325	58205900.0	40487.6	NY	None	None	43.0	38.0	0.0
01301500	HUTCHINSON RIVER AT PELHAM NY	Non-ref	NorthEast	14.5044	02	40.91121	-73.813467	-73.84543	-73.76111	40.88977	41.00899	14504400.0	31500.0	NY	None	yes	46.0	41.0	1.0
01302000	BRONX RIVER AT BRONXVILLE NY	Non-ref	NorthEast	113.661	02	40.935932	-73.83569	-73.89073	-73.68804	40.90351	41.17656	113661000.0	115980.0	NY	None	None	45.0	40.0	0.0
01302020	BRONX RIVER AT NY BOTANICAL GARDEN AT BRONX NY	Non-ref	NorthEast	101.5866	02	40.862306	-73.874389	-73.90368	-73.73035	40.84132	41.13443	101586000.0	110520.0	NY	None	yes	3.0	3.0	3.0
01302500	GLEN COVE CREEK AT GLEN COVE NY	Non-ref	SECstPlain	30.3381	02	40.863433	-73.634294	-73.6654	-73.54265	40.77748	40.89684	30338100.0	43860.0	NY	None	yes	65.0	54.0	14.0
01303000	MILL NECK CREEK AT MILL NECK NY	Non-ref	SECstPlain	27.3879	02	40.887599	-73.563736	-73.63377	-73.52166	40.79073	40.90797	27387900.0	37560.0	NY	None	yes	66.0	54.0	14.0
01303500	COLD SPRING BROOK AT COLD SPRING HARBOR NY	Non-ref	SECstPlain	19.0377	02	40.857321	-73.463455	-73.51657	-73.40956	40.79045	40.8807	19037700.0	27900.0	NY	None	yes	58.0	58.0	19.0
01304000	NISSEQUOGUE RIVER NEAR SMITHTOWN NY	Non-ref	SECstPlain	57.89507	02	40.849542	-73.224281	-73.30968	-73.13256	40.783	40.90498	57895100.0	57965.3	NY	None	yes	66.0	60.0	20.0
01304500	PECONIC RIVER AT RIVERHEAD NY	Non-ref	SECstPlain	192.3507	02	40.91371	-72.686764	-72.94603	-72.66546	40.81632	40.98061	192351000.0	97560.0	NY	None	yes	65.0	58.0	18.0
01305000	CARMANS RIVER AT YAPHANK NY	Non-ref	SECstPlain	190.2237	02	40.830376	-72.906215	-73.15953	-72.86563	40.80607	40.97596	190224000.0	109089.0	NY	None	yes	67.0	60.0	20.0
01305500	SWAN RIVER AT EAST PATCHOGUE NY	Non-ref	SECstPlain	21.29928	02	40.767043	-72.993719	-73.02371	-72.93332	40.74694	40.87991	21299300.0	33256.2	NY	None	yes	63.0	60.0	20.0
01306000	PATCHOGUE RIVER AT PATCHOGUE NY	Non-ref	SECstPlain	36.3186	02	40.765654	-73.020664	-73.07952	-72.96245	40.74495	40.87373	36318600.0	36960.0	NY	None	None	27.0	23.0	0.0
01306440	CONNETQUOT BROOK AT CENTRAL ISLIP NY	Non-ref	SECstPlain	41.7267	02	40.792598	-73.165669	-73.19566	-73.07218	40.76809	40.91874	41725800.0	51600.0	NY	None	yes	29.0	29.0	19.0
01306460	CONNETQUOT BK NR CENTRAL ISLIP NY	Non-ref	SECstPlain	55.7127	02	40.772043	-73.158724	-73.23187	-73.07218	40.74909	40.91874	55711800.0	64560.0	NY	None	yes	31.0	31.0	20.0
01306500	CONNETQUOT RIVER NEAR OAKDALE NY	Non-ref	SECstPlain	72.1854	02	40.747598	-73.150391	-73.23187	-73.07218	40.72692	40.91874	72184500.0	72240.0	NY	None	None	64.0	58.0	19.0
01307000	CHAMPLIN CREEK AT ISLIP NY	Non-ref	SECstPlain	13.9932	02	40.737043	-73.201782	-73.24443	-73.15609	40.71647	40.82656	13993200.0	27480.0	NY	None	None	21.0	20.0	0.0
01307500	PENATAQUIT CREEK AT BAY SHORE NY	Non-ref	SECstPlain	11.0025	02	40.72621	-73.244284	-73.2969	-73.21722	40.70557	40.81594	11002500.0	25560.0	NY	None	None	31.0	27.0	0.0
01308000	SAMPAWAMS CREEK AT BABYLON NY	Non-ref	SECstPlain	58.2192	02	40.704266	-73.314008	-73.37623	-73.24998	40.68231	40.90208	58219200.0	76680.0	NY	None	yes	62.0	57.0	19.0
01308500	CARLLS RIVER AT BABYLON NY	Non-ref	SECstPlain	94.33336	02	40.70871	-73.328453	-73.43283	-73.27833	40.6885	40.89616	94333400.0	73613.7	NY	None	yes	64.0	59.0	19.0
01309000	SANTAPOGUE CREEK AT LINDENHURST NY	Non-ref	SECstPlain	10.0314	02	40.691766	-73.355121	-73.42304	-73.32464	40.67063	40.77907	10031400.0	27540.0	NY	None	None	22.0	20.0	0.0
01309500	MASSAPEQUA CREEK AT MASSAPEQUA NY	Non-ref	SECstPlain	94.45462	02	40.688989	-73.454846	-73.51759	-73.3529	40.66892	40.88926	94454600.0	78087.8	NY	None	yes	62.0	50.0	12.0
01309950	BELLMORE CREEK NEAR BELLMORE NY	Non-ref	SECstPlain	37.7784	02	40.67871	-73.51568	-73.56687	-73.46951	40.65833	40.82834	37778400.0	44160.0	NY	None	yes	1.0	1.0	1.0
01310000	BELLMORE CREEK AT BELLMORE NY	Non-ref	SECstPlain	39.5037	02	40.678712	-73.515682	-73.56702	-73.46734	40.6585	40.82844	39503700.0	44700.0	NY	None	None	65.0	53.0	13.0
01310500	EAST MEADOW BROOK AT FREEPORT NY	Non-ref	SECstPlain	78.0714	02	40.665657	-73.56985	-73.62242	-73.46186	40.64422	40.86546	78071400.0	74940.0	NY	None	yes	64.0	52.0	14.0
01311000	PINES BROOK AT MALVERNE NY	Non-ref	SECstPlain	26.1522	02	40.666492	-73.659297	-73.71069	-73.60049	40.64566	40.81186	26152200.0	54000.0	NY	None	None	60.0	48.0	9.0
01311500	VALLEY STREAM AT VALLEY STREAM NY	Non-ref	SECstPlain	18.0594	02	40.663714	-73.704576	-73.75512	-73.6521	40.64017	40.75565	18059400.0	31140.0	NY	None	yes	55.0	55.0	20.0
01311810	CONSELYEAS POND TRIBUTARY AT ROSEDALE NY	Non-ref	SECstPlain	33.5412	02	40.66206	-73.74331	-73.78168	-73.66444	40.64018	40.78149	33541200.0	41340.0	NY	None	yes	14.0	14.0	14.0
01312000	HUDSON RIVER NEAR NEWCOMB NY	Non-ref	NorthEast	498.2193	02	43.966174	-74.130704	-74.42291	-73.89138	43.89363	44.1731	498219000.0	196380.0	NY	None	yes	68.0	44.0	7.0
01315000	INDIAN RIVER NEAR INDIAN LAKE NY	Non-ref	NorthEast	337.5252	02	43.756453	-74.267093	-74.62822	-74.24219	43.46461	43.79261	337525000.0	156960.0	NY	None	yes	95.0	60.0	20.0
01315500	HUDSON RIVER AT NORTH CREEK NY	Non-ref	NorthEast	2058.557	02	43.700898	-73.983466	-74.62822	-73.85403	43.46461	44.1731	2058550000.0	454560.0	NY	None	yes	102.0	60.0	20.0
01317000	SCHROON RIVER AT RIVERBANK NY	Non-ref	NorthEast	1355.597	02	43.609512	-73.737623	-74.03527	-73.52576	43.55968	44.13628	1355590000.0	327120.0	NY	None	None	62.0	20.0	0.0
01318500	HUDSON RIVER AT HADLEY NY	Non-ref	NorthEast	4332.634	02	43.31896	-73.844289	-74.62377	-73.52648	43.27757	44.17339	4332630000.0	624861.0	NY	None	yes	88.0	60.0	20.0
01319000	EAST BRANCH SACANDAGA RIVER AT GRIFFIN NY	Ref	NorthEast	292.707	02	43.473678	-74.223191	-74.25917	-74.00445	43.43428	43.72199	292703000.0	122580.0	NY	None	None	44.0	28.0	0.0
01321000	SACANDAGA RIVER NEAR HOPE NY	Non-ref	NorthEast	1263.694	02	43.352847	-74.270415	-74.66689	-74.00445	43.18306	43.72199	1263690000.0	312180.0	NY	None	yes	98.0	60.0	20.0
01325000	SACANDAGA RIVER AT STEWARTS BRIDGE NR HADLEY NY	Non-ref	NorthEast	2776.659	02	43.31146	-73.867346	-74.66689	-73.83289	42.99022	43.72199	2776650000.0	447000.0	NY	None	yes	102.0	60.0	20.0
01327750	HUDSON RIVER AT FORT EDWARD NY	Non-ref	NorthEast	7334.232	02	43.269517	-73.595949	-74.66689	-73.52576	42.99022	44.1731	7334230000.0	829860.0	NY	None	yes	39.0	32.0	20.0
01328000	BOND CREEK AT DUNHAM BASIN NY	Non-ref	NorthEast	37.8747	02	43.306184	-73.548448	-73.6606	-73.50542	43.28467	43.39886	37874700.0	45660.0	NY	None	None	35.0	33.0	0.0
01329000	BATTEN KILL AT ARLINGTON, VT	Non-ref	NorthEast	389.3868	02	43.076188	-73.156773	-73.24632	-72.91476	42.9543	43.29955	389387000.0	155940.0	VT	None	None	55.0	34.0	0.0
01329490	BATTEN KILL BELOW MILL AT BATTENVILLE NY	Non-ref	NorthEast	1026.605	02	43.108687	-73.421779	-73.49249	-72.91476	42.9543	43.36188	1026600000.0	252780.0	NY	None	yes	57.0	30.0	11.0
01329500	BATTEN KILL AT BATTENVILLE NY	Non-ref	NorthEast	1046.997	02	43.101465	-73.431501	-73.48789	-72.91418	42.95425	43.36174	1047000000.0	240655.0	NY	None	None	51.0	24.0	5.0
01330000	GLOWEGEE CREEK AT WEST MILTON NY	Non-ref	NorthEast	63.7596	02	43.03063	-73.927347	-74.09386	-73.90607	42.97663	43.10593	63759600.0	55380.0	NY	None	yes	33.0	32.0	19.0
01330500	KAYADEROSSERAS CREEK NR WEST MILTON NY	Non-ref	NorthEast	219.8817	02	43.038408	-73.909291	-74.09372	-73.78489	42.97647	43.22627	219881000.0	123360.0	NY	None	None	67.0	45.0	5.0
01331095	HUDSON RIVER AT STILLWATER NY	Non-ref	NorthEast	9784.651	02	42.935632	-73.651784	-74.64876	-72.91418	42.88924	44.17339	9784650000.0	1000260.0	NY	None	yes	32.0	32.0	20.0
01331500	HOOSIC RIVER AT ADAMS, MA	Non-ref	NorthEast	121.0464	02	42.611194	-73.123992	-73.24467	-73.03615	42.46602	42.64849	121046000.0	74040.0	MA	None	yes	78.0	60.0	20.0
01332000	NORTH BRANCH HOOSIC RIVER AT NORTH ADAMS, MA	Non-ref	NorthEast	105.5151	02	42.702304	-73.093159	-73.17791	-72.97958	42.67757	42.84553	105512000.0	60900.0	MA	None	None	59.0	41.0	1.0
01332500	HOOSIC RIVER NEAR WILLIAMSTOWN, MA	Non-ref	NorthEast	328.3083	02	42.700359	-73.158994	-73.24467	-72.97927	42.46602	42.84628	328308000.0	143880.0	MA	None	yes	69.0	60.0	20.0
01333000	GREEN RIVER AT WILLIAMSTOWN, MA	Ref	NorthEast	112.1643	02	42.708969	-73.196773	-73.3453	-73.13772	42.55779	42.7337	112164000.0	66900.0	MA	yes	yes	60.0	60.0	20.0
01333500	LITTLE HOOSIC RIVER AT PETERSBURG NY	Ref	NorthEast	140.9163	02	42.763968	-73.337333	-73.43456	-73.24789	42.59591	42.80091	140916000.0	69669.8999999	NY	None	None	45.0	45.0	7.0
01334000	WALLOOMSAC RIVER NEAR NORTH BENNINGTON, VT	Non-ref	NorthEast	299.5632	02	42.912856	-73.256498	-73.28882	-73.03315	42.74774	43.02053	299563000.0	117480.0	VT	None	yes	78.0	60.0	20.0
01334500	HOOSIC RIVER NEAR EAGLE BRIDGE NY	Non-ref	NorthEast	1324.343	02	42.938689	-73.377056	-73.43456	-72.97954	42.46425	43.07258	1324340000.0	258309.0	NY	None	yes	97.0	60.0	20.0
01335754	HUDSON R ABOVE LOCK 1 NR WATERFORD NY	Non-ref	NorthEast	11970.2	02	42.829244	-73.666229	-74.66689	-72.91476	42.46602	44.1731	11970200000.0	1241220.0	NY	None	yes	90.0	40.0	20.0
01336000	MOHAWK RIVER BELOW DELTA DAM NEAR ROME NY	Non-ref	NorthEast	386.4249	02	43.264514	-75.436286	-75.56081	-75.22781	43.23546	43.54034	386425000.0	164220.0	NY	None	yes	82.0	60.0	20.0
01343060	WEST CANADA CREEK NEAR WILMURT NY	Ref	NorthEast	609.7887	02	43.36618	-74.957658	-74.9947	-74.48371	43.30969	43.65774	609789000.0	231000.0	NY	None	yes	8.0	8.0	8.0
01346000	WEST CANADA CREEK AT KAST BRIDGE NY	Non-ref	NorthEast	1439.444	02	43.068959	-74.988212	-75.32391	-74.48371	43.02809	43.65774	1439440000.0	436140.0	NY	None	yes	90.0	60.0	20.0
01347000	MOHAWK RIVER NEAR LITTLE FALLS NY	Non-ref	NorthEast	3450.5	02	43.014793	-74.779315	-75.59129	-74.48627	42.80257	43.6584	3450500000.0	666448.0	NY	None	yes	82.0	60.0	20.0
01348000	EAST CANADA CREEK AT EAST CREEK NY	Non-ref	NorthEast	756.468	02	43.016738	-74.740702	-74.93791	-74.40198	42.99607	43.40161	756463000.0	254340.0	NY	None	yes	49.0	46.0	6.0
01349000	OTSQUAGO CREEK AT FORT PLAIN NY	Non-ref	NorthEast	157.662	02	42.929517	-74.625976	-74.90915	-74.60544	42.84407	43.01103	157662000.0	98280.0	NY	None	None	40.0	40.0	0.0
01349150	CANAJOHARIE CREEK NR CANAJOHARIE NY	Non-ref	NorthEast	154.8242	02	42.876184	-74.602919	-74.80761	-74.51291	42.75443	42.90605	154824000.0	70445.7	NY	None	yes	16.0	16.0	16.0
01349700	EAST KILL NR JEWETT CENTER NY	Non-ref	NorthEast	92.7072	02	42.249253	-74.302645	-74.3527	-74.04456	42.202	42.30809	92707200.0	68700.0	NY	None	yes	12.0	12.0	12.0
01349705	SCHOHARIE CREEK NEAR LEXINGTON NY	Non-ref	NorthEast	249.201	02	42.237031	-74.340147	-74.37428	-74.04456	42.09462	42.30809	249201000.0	99600.0	NY	None	yes	10.0	10.0	10.0
01349711	WEST KILL BELOW HUNTER BROOK NEAR SPRUCETON NY	Ref	NorthEast	12.6972	02	42.185088	-74.276812	-74.30045	-74.20666	42.14189	42.22247	12697200.0	19140.0	NY	None	yes	12.0	12.0	12.0
01349810	WEST KILL NEAR WEST KILL NY	Ref	NorthEast	73.656	02	42.230365	-74.392926	-74.45963	-74.20666	42.14189	42.25945	73656000.0	55920.0	NY	None	yes	12.0	12.0	12.0
01349840	BATAVIA KILL NEAR MAPLECREST NY	Ref	NorthEast	5.2092	02	42.28953	-74.115971	-74.14453	-74.07766	42.24771	42.32086	5209200.0	12720.0	NY	None	yes	11.0	11.0	11.0
01349950	BATAVIA KILL AT RED FALLS NEAR PRATTSVILLE NY	Non-ref	NorthEast	177.9192	02	42.308418	-74.389869	-74.41392	-74.07766	42.24756	42.39997	177919000.0	84360.0	NY	None	yes	12.0	12.0	12.0
01350000	SCHOHARIE CREEK AT PRATTSVILLE NY	Ref	NorthEast	612.5148	02	42.319528	-74.436537	-74.51093	-74.04453	42.09472	42.40007	612515000.0	148560.0	NY	yes	yes	102.0	60.0	20.0
01350035	BEAR KILL NEAR PRATTSVILLE NY	Non-ref	NorthEast	67.71329	02	42.338139	-74.451537	-74.61946	-74.43066	42.29424	42.45467	67713300.0	58200.0	NY	None	yes	11.0	11.0	11.0
01350080	MANOR KILL AT WEST CONESVILLE NEAR GILBOA NY	Ref	NorthEast	83.8404	02	42.377026	-74.412924	-74.43775	-74.23991	42.33576	42.47089	83840400.0	53040.0	NY	yes	yes	23.0	23.0	20.0
01350101	SCHOHARIE CREEK AT GILBOA NY	Non-ref	NorthEast	817.1208	02	42.397303	-74.450425	-74.61946	-74.04456	42.09462	42.47089	817121000.0	196680.0	NY	None	yes	9.0	9.0	0.0
01350120	PLATTER KILL AT GILBOA NY	Non-ref	NorthEast	29.4678	02	42.406191	-74.447091	-74.46814	-74.33295	42.38304	42.49098	29467800.0	34080.0	NY	None	yes	34.0	34.0	20.0
01350140	MINE KILL NEAR NORTH BLENHEIM NY	Ref	NorthEast	43.7598	02	42.428968	-74.472925	-74.62488	-74.45116	42.39504	42.4996	43759800.0	45840.0	NY	yes	yes	34.0	34.0	20.0
01350180	SCHOHARIE CREEK AT NORTH BLENHEIM NY	Non-ref	NorthEast	928.5067	02	42.465911	-74.462091	-74.62488	-74.04456	42.09462	42.4996	928507000.0	201180.0	NY	None	yes	38.0	38.0	19.0
01350355	SCHOHARIE CREEK AT BREAKABEEN NY	Non-ref	NorthEast	1153.139	02	42.537021	-74.41042	-74.66103	-74.04456	42.09462	42.61328	1153140000.0	247980.0	NY	None	yes	34.0	34.0	20.0
01351500	SCHOHARIE CREEK AT BURTONSVILLE NY	Non-ref	NorthEast	2320.989	02	42.800075	-74.262907	-74.71816	-74.00723	42.09462	42.83215	2320990000.0	470220.0	NY	None	yes	70.0	60.0	20.0
01356190	LISHA KILL NORTHWEST OF NISKAYUNA NY	Non-ref	NorthEast	40.6341	02	42.78369	-73.85679	-73.96087	-73.81083	42.70246	42.8132	40634100.0	45540.0	NY	None	yes	13.0	13.0	13.0
01357500	MOHAWK RIVER AT COHOES NY	Non-ref	NorthEast	9113.444	02	42.785356	-73.707619	-75.59129	-73.6779	42.09592	43.6584	9113440000.0	1206350.0	NY	None	yes	91.0	60.0	20.0
01358000	HUDSON RIVER AT GREEN ISLAND NY	Non-ref	NorthEast	20981.08	02	42.7523	-73.689007	-75.59305	-72.91476	42.09462	44.1731	20981100000.0	1904520.0	NY	None	yes	60.0	57.0	17.0
01359750	MOORDENER KILL AT CASTLETON-ON-HUDSON NY	Non-ref	NorthEast	82.5012	02	42.53397	-73.737065	-73.75894	-73.55393	42.50305	42.67308	82501200.0	76020.0	NY	None	None	37.0	37.0	5.0
01360640	VALATIE KILL NEAR NASSAU NY	Non-ref	NorthEast	24.9228	02	42.55203	-73.5915	-73.61294	-73.47742	42.52642	42.62841	24919200.0	43560.0	NY	None	yes	19.0	19.0	19.0
01361500	CATSKILL CREEK AT OAK HILL NY	Ref	NorthEast	252.7428	02	42.404526	-74.151527	-74.37575	-74.11835	42.34585	42.5769	252743000.0	79375.3	NY	None	None	48.0	28.0	0.0
013621955	BIRCH CREEK AT BIG INDIAN NY	Non-ref	NorthEast	32.7042	02	42.108979	-74.451818	-74.5401	-74.40954	42.08576	42.20035	32704200.0	33600.0	NY	None	yes	11.0	11.0	11.0
01362198	ESOPUS CREEK AT SHANDAKEN NY	Ref	NorthEast	154.1376	02	42.116479	-74.388483	-74.5401	-74.35256	41.99176	42.21768	154138000.0	79680.0	NY	None	None	25.0	25.0	0.0
01362200	ESOPUS CREEK AT ALLABEN NY	Ref	NorthEast	169.1902	02	42.117034	-74.380149	-74.53793	-74.34709	41.98176	42.21926	169190000.0	80957.8999999	NY	yes	yes	46.0	46.0	20.0
0136230002	WOODLAND CREEK ABOVE MOUTH AT PHOENICIA NY	Ref	NorthEast	53.1855	02	42.07972	-74.33458	-74.41766	-74.28812	41.97868	42.1111	53185500.0	39420.0	NY	None	yes	6.0	6.0	6.0
01362370	STONY CLOVE CREEK BLW OX CLOVE AT CHICHESTER NY	Ref	NorthEast	80.2485	02	42.102028	-74.310889	-74.34662	-74.15372	42.06029	42.1905	80248500.0	48600.0	NY	None	yes	12.0	12.0	12.0
01362497	LITTLE BEAVER KILL @ BEECHFORD NR MT TREMPER NY	Ref	NorthEast	43.1595	02	42.019536	-74.266258	-74.28732	-74.10486	41.97771	42.07834	43158600.0	41040.0	NY	None	yes	12.0	12.0	12.0
01362500	ESOPUS CREEK AT COLDBROOK NY	Non-ref	NorthEast	493.1622	02	42.014259	-74.270703	-74.5401	-74.10486	41.97771	42.21768	493161000.0	144120.0	NY	None	yes	78.0	60.0	20.0
01363382	BUSH KILL BLW MALTBY HOLLOW BK AT WEST SHOKAN NY	Ref	NorthEast	44.2872	02	41.965648	-74.292926	-74.38403	-74.26533	41.88712	42.02929	44287200.0	39000.0	NY	None	yes	9.0	9.0	9.0
01364500	ESOPUS CREEK AT MOUNT MARION NY	Non-ref	NorthEast	1084.421	02	42.037869	-73.972081	-74.5401	-73.94761	41.82445	42.21768	1084420000.0	239340.0	NY	None	yes	45.0	39.0	20.0
01364959	RONDOUT CR ABOVE RED BROOK AT PEEKAMOOSE NY	Ref	NorthEast	14.0391	02	41.937037	-74.374596	-74.41874	-74.32033	41.91447	41.99698	14039100.0	20040.0	NY	None	yes	13.0	13.0	13.0
01365000	RONDOUT CREEK NEAR LOWES CORNERS NY	Ref	NorthEast	99.5688	02	41.866482	-74.4871	-74.51719	-74.32031	41.83376	41.99714	99568800.0	62520.0	NY	yes	yes	72.0	60.0	20.0
01365500	CHESTNUT CREEK AT GRAHAMSVILLE NY	Non-ref	NorthEast	54.4473	02	41.845092	-74.540435	-74.64364	-74.492	41.7713	41.92519	54446400.0	56520.0	NY	None	yes	58.0	48.0	11.0
01366650	SANDBURG CREEK AT ELLENVILLE NY	Non-ref	NorthEast	139.8762	02	41.71426	-74.389043	-74.60678	-74.33089	41.59117	41.76829	139875000.0	100560.0	NY	None	None	20.0	20.0	0.0
01367500	RONDOUT CREEK AT ROSENDALE NY	Non-ref	NorthEast	940.1213	02	41.843148	-74.085976	-74.6446	-74.05792	41.57009	41.99759	940121000.0	234439.0	NY	None	yes	90.0	59.0	20.0
01367800	Papakating Creek at Pellettown NJ	Non-ref	EastHghlnds	42.8715	02	41.162778	-74.675278	-74.75587	-74.64109	41.10395	41.24416	42871500.0	48240.0	NJ	None	yes	6.0	6.0	6.0
01368000	WALLKILL RIVER NEAR UNIONVILLE NY	Non-ref	EastHghlnds	364.9581	02	41.260095	-74.549049	-74.75587	-74.49108	40.97149	41.34877	364958000.0	193260.0	NJ	None	None	44.0	32.0	0.0
01369000	POCHUCK CREEK NEAR PINE ISLAND NY	Non-ref	NorthEast	253.2492	02	41.27565	-74.471547	-74.58457	-74.23498	41.11743	41.3339	253249000.0	122640.0	NY	None	None	40.0	28.0	0.0
01369500	QUAKER CREEK AT FLORIDA NY	Non-ref	EastHghlnds	25.0758	02	41.339261	-74.362098	-74.39779	-74.29068	41.26925	41.38248	25075800.0	32520.0	NY	None	None	42.0	30.0	0.0
01371500	WALLKILL RIVER AT GARDINER NY	Non-ref	EastHghlnds	1866.345	02	41.686205	-74.165146	-74.75719	-74.08742	40.97251	41.78223	1866350000.0	288191.0	NY	None	yes	85.0	60.0	20.0
01372058	HUDSON RIVER BELOW POUGHKEEPSIE NY	Non-ref	NorthEast	30781.58	02	41.650927	-73.944582	-75.59305	-72.91476	40.97149	44.1731	30781600000.0	2326620.0	NY	None	yes	0.0	0.0	0.0
01372500	WAPPINGER CREEK NEAR WAPPINGERS FALLS NY	Non-ref	NorthEast	441.8134	02	41.653149	-73.872635	-73.91125	-73.5879	41.63093	42.00509	441813000.0	183614.0	NY	None	yes	81.0	60.0	20.0
0137449480	EAST BRANCH CROTON RIVER NEAR PUTNAM LAKE NY	Non-ref	NorthEast	156.0924	02	41.44725	-73.556083	-73.70059	-73.47466	41.40903	41.60438	156082000.0	104340.0	NY	None	yes	14.0	14.0	14.0
01374505	EAST BRANCH CROTON RIVER AT BREWSTER NY	Non-ref	NorthEast	218.3022	02	41.394539	-73.607072	-73.70059	-73.47466	41.33063	41.60438	218300000.0	116880.0	NY	None	yes	15.0	15.0	15.0
01374531	EAST BRANCH CROTON RIVER NEAR CROTON FALLS NY	Non-ref	NorthEast	231.8166	02	41.373778	-73.63875	-73.70059	-73.47466	41.33063	41.60438	231817000.0	120840.0	NY	None	yes	15.0	15.0	15.0
01374559	WEST BRANCH CROTON RIVER AT RICHARDSVILLE NY	Non-ref	NorthEast	28.9323	02	41.470649	-73.760132	-73.84776	-73.71992	41.42907	41.55102	28932300.0	44400.0	NY	None	yes	14.0	14.0	14.0
01374581	W BR CROTON RIVER BELOW DAM NEAR KENT CLIFFS NY	Non-ref	NorthEast	57.5631	02	41.449816	-73.73652	-73.84776	-73.69162	41.42489	41.56238	57563100.0	57960.0	NY	None	yes	7.0	7.0	7.0
01374598	HORSE POUND BROOK NEAR LAKE CARMEL NY	Non-ref	NorthEast	10.107	02	41.475861	-73.689472	-73.74166	-73.6567	41.44894	41.53705	10107000.0	22920.0	NY	None	yes	13.0	13.0	13.0
0137462010	WEST BRANCH CROTON RIVER NEAR CARMEL NY	Non-ref	NorthEast	110.7324	02	41.411806	-73.69375	-73.84776	-73.65439	41.37192	41.56238	110732000.0	83280.0	NY	None	yes	15.0	15.0	15.0
01374654	MIDDLE BRANCH CROTON RIVER NEAR CARMEL NY	Non-ref	NorthEast	35.8524	02	41.432194	-73.651778	-73.74195	-73.62685	41.40983	41.58345	35852400.0	54360.0	NY	None	yes	13.0	13.0	13.0
01374701	WEST BRANCH CROTON RIVER NEAR CROTON FALLS NY	Non-ref	NorthEast	207.7434	02	41.357872	-73.668185	-73.84776	-73.60421	41.32184	41.58345	207742000.0	115380.0	NY	None	yes	15.0	15.0	15.0
01374781	TITICUS RIVER BELOW JUNE ROAD AT SALEM CENTER NY	Ref	NorthEast	33.5295	02	41.326972	-73.591389	-73.6128	-73.47435	41.25458	41.38742	33529500.0	48180.0	NY	None	yes	2.0	2.0	2.0
01374821	TITICUS RIVER AT PURDYS STATION NY	Non-ref	NorthEast	61.8084	02	41.327194	-73.655833	-73.67693	-73.47435	41.25458	41.38742	61808400.0	71160.0	NY	None	yes	15.0	15.0	15.0
01374890	CROSS RIVER NEAR CROSS RIVER NY	Non-ref	NorthEast	40.6683	02	41.260222	-73.601861	-73.62668	-73.49942	41.21212	41.33581	40668300.0	45600.0	NY	None	yes	13.0	13.0	13.0
01374901	CROSS RIVER AT KATONAH NY	Non-ref	NorthEast	73.6182	02	41.266206	-73.665685	-73.68716	-73.49942	41.20305	41.33581	73618200.0	64740.0	NY	None	yes	15.0	15.0	15.0
01374918	STONE HILL RIVER SOUTH OF KATONAH NY	Non-ref	NorthEast	49.2003	02	41.249539	-73.670408	-73.72711	-73.53912	41.16064	41.27175	49200300.0	64140.0	NY	None	yes	9.0	9.0	9.0
01374930	MUSCOOT RIVER AT BALDWIN PLACE NY	Non-ref	NorthEast	34.5879	02	41.338139	-73.768694	-73.82385	-73.70581	41.31311	41.43665	34586100.0	38040.0	NY	None	yes	14.0	14.0	14.0
01374941	MUSCOOT RIVER BELOW DAM AT AMAWALK NY	Non-ref	NorthEast	50.7519	02	41.287611	-73.753639	-73.82385	-73.70581	41.26676	41.43665	50751900.0	55440.0	NY	None	yes	15.0	15.0	15.0
01374987	KISCO RIVER BELOW MOUNT KISCO NY	Non-ref	NorthEast	45.47009	02	41.22875	-73.743611	-73.79511	-73.67146	41.12435	41.25877	45470100.0	34936.0	NY	None	yes	12.0	12.0	12.0
0137499350	HUNTER BROOK SOUTH OF YORKTOWN NY	Non-ref	NorthEast	20.385	02	41.262038	-73.842914	-73.89702	-73.77987	41.23973	41.34625	20385000.0	32640.0	NY	None	yes	9.0	9.0	9.0
01375000	CROTON R @ NEW CROTON DAM NR CROTON-ON-HUDSON NY	Non-ref	NorthEast	980.0289	02	41.225094	-73.859303	-73.89925	-73.47435	41.12487	41.60438	980026000.0	282360.0	NY	None	yes	76.0	60.0	20.0
01376500	SAW MILL RIVER AT YONKERS NY	Non-ref	NorthEast	62.53778	02	40.937321	-73.889024	-73.91031	-73.73123	40.91658	41.20325	62537800.0	86305.8	NY	None	None	46.0	41.0	2.0
01376800	HACKENSACK RIVER AT WEST NYACK NY	Non-ref	NorthEast	80.5878	02	41.095652	-73.964027	-74.05997	-73.88846	41.06894	41.21664	80587800.0	52380.0	NY	None	yes	50.0	50.0	20.0
01377000	HACKENSACK RIVER AT RIVERVALE NJ	Non-ref	NorthEast	146.5065	02	40.999167	-73.989167	-74.05997	-73.88846	40.97184	41.21664	146506000.0	86340.0	NJ	None	yes	68.0	60.0	20.0
01377370	Pascack Brook at Park Ridge NJ	Non-ref	NorthEast	35.2422	02	41.036667	-74.039167	-74.10422	-73.99249	41.01448	41.17375	35242200.0	49140.0	NJ	None	yes	5.0	5.0	5.0
01377500	PASCACK BROOK AT WESTWOOD NJ	Non-ref	NorthEast	73.6038	02	40.992778	-74.021111	-74.10422	-73.99249	40.93977	41.17375	73603800.0	77940.0	NJ	None	yes	75.0	60.0	20.0
01378500	HACKENSACK RIVER AT NEW MILFORD NJ	Non-ref	NorthEast	300.3462	02	40.948333	-74.026667	-74.10422	-73.88846	40.87083	41.21664	300346000.0	150840.0	NJ	None	yes	88.0	60.0	20.0
01379000	PASSAIC RIVER NEAR MILLINGTON NJ	Non-ref	SEPlains	140.4292	02	40.68	-74.528889	-74.62069	-74.37728	40.65606	40.81756	140414000.0	75060.0	NJ	None	yes	89.0	60.0	20.0
01379500	PASSAIC RIVER NEAR CHATHAM NJ	Non-ref	SEPlains	256.0499	02	40.726111	-74.389722	-74.63978	-74.33385	40.59715	40.81762	256077000.0	107760.0	NJ	None	yes	80.0	60.0	20.0
01379530	CANOE BROOK NEAR SUMMIT NJ	Non-ref	SEPlains	29.9142	02	40.744444	-74.353611	-74.37627	-74.24233	40.71224	40.84856	29914200.0	41460.0	NJ	None	yes	21.0	21.0	19.0
01379773	GREEN POND BROOK AT PICATINNY ARSENAL NJ	Non-ref	NorthEast	19.5633	02	40.959444	-74.539722	-74.56354	-74.44282	40.93666	41.04346	19563300.0	31800.0	NJ	None	yes	27.0	27.0	20.0
01379780	GREEN PD BK BL PICATINNY LK AT PICATINNY ARS NJ	Non-ref	NorthEast	23.6448	02	40.948889	-74.557778	-74.58122	-74.44282	40.92125	41.04346	23644800.0	39000.0	NJ	None	yes	25.0	25.0	20.0
01379790	GREEN POND BROOK AT WHARTON NJ	Non-ref	NorthEast	32.4765	02	40.917778	-74.583611	-74.61559	-74.44282	40.89405	41.04346	32476500.0	51120.0	NJ	None	None	23.0	23.0	16.0
01380500	ROCKAWAY RIVER ABOVE RESERVOIR AT BOONTON NJ	Non-ref	NorthEast	304.1629	02	40.902778	-74.409722	-74.65502	-74.32791	40.80484	41.10503	304163000.0	128613.0	NJ	None	yes	72.0	60.0	20.0
01381000	ROCKAWAY RIVER BELOW RESERVOIR AT BOONTON NJ	Non-ref	NorthEast	314.3538	02	40.896944	-74.394722	-74.66315	-74.32835	40.80522	41.10535	314354000.0	178260.0	NJ	None	yes	101.0	60.0	20.0
01381400	Whippany River near Morristown NJ	Non-ref	NorthEast	36.2061	02	40.812222	-74.511944	-74.62511	-74.48777	40.7528	40.85223	36206100.0	35340.0	NJ	None	yes	14.0	14.0	14.0
01381500	WHIPPANY RIVER AT MORRISTOWN NJ	Non-ref	NorthEast	76.87424	02	40.807222	-74.456944	-74.62428	-74.42442	40.75277	40.89511	76874200.0	50180.2	NJ	None	yes	88.0	60.0	20.0
01381800	Whippany River near Pine Brook NJ	Non-ref	SEPlains	180.0306	02	40.845	-74.347222	-74.62511	-74.32668	40.73802	40.92685	180031000.0	103860.0	NJ	None	yes	15.0	15.0	15.0
01381900	PASSAIC RIVER AT PINE BROOK NJ	Non-ref	SEPlains	907.8039	02	40.8625	-74.321389	-74.66315	-74.2309	40.59699	41.10535	907802000.0	264060.0	NJ	None	yes	30.0	30.0	20.0
01382170	Pequannock River at NJ Route 23 near Oak Ridge NJ	Non-ref	NorthEast	49.2408	02	41.077778	-74.489722	-74.55998	-74.4253	41.0394	41.18966	49240800.0	57900.0	NJ	None	yes	1.0	1.0	1.0
01382500	PEQUANNOCK R AT MACOPIN INTAKE DAM NJ	Non-ref	NorthEast	164.1465	02	41.018333	-74.401111	-74.55998	-74.35868	40.96745	41.18966	164146000.0	104220.0	NJ	None	yes	84.0	57.0	17.0
01383500	WANAQUE RIVER AT AWOSTING NJ	Non-ref	NorthEast	75.3111	02	41.160278	-74.333611	-74.44037	-74.22292	41.06359	41.27987	75311100.0	79260.0	NJ	None	yes	90.0	60.0	20.0
01384000	Wanaque River at Monks NJ	Non-ref	NorthEast	111.0663	02	41.1225	-74.296944	-74.44037	-74.22292	41.06359	41.27987	111066000.0	85860.0	NJ	None	None	50.0	35.0	0.0
01384500	RINGWOOD CREEK NEAR WANAQUE NJ	Non-ref	NorthEast	43.9758	02	41.1275	-74.265556	-74.31114	-74.19291	41.10556	41.26941	43975800.0	51480.0	NJ	None	yes	68.0	53.0	20.0
01386000	WEST BROOK NEAR WANAQUE NJ	Non-ref	NorthEast	30.6657	02	41.073611	-74.311667	-74.40754	-74.27308	41.03785	41.13674	30665700.0	35940.0	NJ	None	yes	51.0	36.0	7.0
01387400	RAMAPO RIVER AT RAMAPO NY	Non-ref	NorthEast	231.6789	02	41.140373	-74.168479	-74.2721	-74.06173	41.08917	41.37858	231678000.0	112800.0	NY	None	yes	30.0	30.0	20.0
01387420	RAMAPO RIVER AT SUFFERN NY	Non-ref	NorthEast	247.6512	02	41.118429	-74.160145	-74.2721	-74.06173	41.08917	41.37858	247650000.0	113760.0	NY	None	yes	30.0	30.0	20.0
01387450	MAHWAH RIVER NEAR SUFFERN NY	Non-ref	NorthEast	32.1759	02	41.141111	-74.116111	-74.15058	-74.02651	41.09938	41.23207	32175000.0	46200.0	NY	None	yes	41.0	41.0	10.0
01387500	RAMAPO RIVER NEAR MAHWAH NJ	Non-ref	NorthEast	318.7935	02	41.098056	-74.162778	-74.2721	-74.02651	41.03955	41.37858	318794000.0	144780.0	NJ	None	yes	91.0	60.0	20.0
01388000	RAMAPO RIVER AT POMPTON LAKES NJ	Non-ref	NorthEast	420.579	02	40.991972	-74.279861	-74.30983	-74.02651	40.94011	41.37858	420578000.0	186540.0	NJ	None	yes	88.0	60.0	20.0
01388500	POMPTON RIVER AT POMPTON PLAINS NJ	Non-ref	NorthEast	923.0895	02	40.969167	-74.281944	-74.55998	-74.02651	40.93955	41.37858	923086000.0	265860.0	NJ	None	yes	70.0	60.0	20.0
01389500	PASSAIC RIVER AT LITTLE FALLS NJ	Non-ref	NorthEast	1981.95	02	40.884722	-74.226111	-74.66315	-74.02651	40.59699	41.37858	1981950000.0	396420.0	NJ	None	yes	110.0	60.0	20.0
01389550	Peckman River at Little Falls NJ	Non-ref	SEPlains	20.0574	02	40.871944	-74.222222	-74.28564	-74.18427	40.78248	40.89282	20057400.0	27180.0	NJ	None	yes	2.0	2.0	2.0
01389890	Passaic River at Dundee Dam at Clifton NJ	Non-ref	NorthEast	2107.524	02	40.885833	-74.128333	-74.66315	-74.02651	40.59699	41.37858	2107520000.0	423960.0	NJ	None	yes	2.0	2.0	2.0
01390450	Saddle River at Upper Saddle River NJ	Non-ref	NorthEast	29.13982	02	41.058611	-74.095556	-74.13269	-74.02095	41.03525	41.14464	29139800.0	24826.8	NJ	None	yes	6.0	6.0	6.0
01390500	SADDLE RIVER AT RIDGEWOOD NJ	Non-ref	NorthEast	57.50443	02	40.985	-74.090556	-74.14081	-74.02095	40.96435	41.14464	57504400.0	42150.7	NJ	None	yes	52.0	52.0	20.0
01391000	HOHOKUS BROOK AT HO-HO-KUS NJ	Non-ref	NorthEast	42.2928	02	40.997778	-74.111944	-74.22527	-74.08981	40.97445	41.11497	42291900.0	58620.0	NJ	None	yes	42.0	42.0	11.0
01391500	SADDLE RIVER AT LODI NJ	Non-ref	NorthEast	146.4624	02	40.890278	-74.080556	-74.22527	-74.02069	40.86493	41.14419	146462000.0	117300.0	NJ	None	yes	86.0	60.0	20.0
01392210	THIRD RIVER AT PASSAIC NJ	Non-ref	SEPlains	32.4396	02	40.829722	-74.141944	-74.23725	-74.11913	40.77601	40.90674	32438700.0	40620.0	NJ	None	None	20.0	20.0	8.0
01393450	ELIZABETH R AT URSINO LAKE AT ELIZABETH NJ	Non-ref	SEPlains	45.5382	02	40.675	-74.221944	-74.31629	-74.18479	40.64904	40.79013	45538200.0	44580.0	NJ	None	yes	88.0	60.0	20.0
01393500	ELIZABETH RIVER AT ELIZABETH NJ	Non-ref	SEPlains	49.4001	02	40.668333	-74.219444	-74.31629	-74.18479	40.64305	40.79013	49400100.0	49200.0	NJ	None	None	51.0	23.0	0.0
01394500	RAHWAY RIVER NEAR SPRINGFIELD NJ	Non-ref	SEPlains	67.09879	02	40.6875	-74.311667	-74.3822	-74.2109	40.66602	40.83417	67114800.0	53880.0	NJ	None	yes	71.0	60.0	20.0
01395000	RAHWAY RIVER AT RAHWAY NJ	Non-ref	SEPlains	107.8884	02	40.618889	-74.283333	-74.39938	-74.21347	40.59673	40.83478	107888000.0	87540.0	NJ	None	yes	88.0	60.0	20.0
01396000	ROBINSONS BRANCH AT RAHWAY NJ	Non-ref	SEPlains	52.5447	02	40.605833	-74.299722	-74.42052	-74.27677	40.5533	40.67796	52544700.0	46920.0	NJ	None	None	57.0	47.0	7.0
01396091	South Br Raritan River at Rt 46 at Budd Lake NJ	Non-ref	NorthEast	12.9753	02	40.859444	-74.760833	-74.79586	-74.69424	40.83666	40.91539	12975300.0	21480.0	NJ	None	yes	1.0	1.0	1.0
01396190	South Branch Raritan River at Four Bridges NJ	Non-ref	NorthEast	79.9956	02	40.806111	-74.740556	-74.80648	-74.61764	40.77564	40.92754	79995600.0	69900.0	NJ	None	yes	10.0	10.0	10.0
01396500	SOUTH BRANCH RARITAN RIVER NEAR HIGH BRIDGE NJ	Non-ref	NorthEast	162.5247	02	40.677778	-74.879167	-74.90831	-74.61818	40.65177	40.91502	162524000.0	116340.0	NJ	None	yes	91.0	60.0	20.0
01396580	SPRUCE RUN AT GLEN GARDNER NJ	Non-ref	NorthEast	31.8627	02	40.693333	-74.939722	-74.9892	-74.82633	40.66322	40.79873	31861800.0	47940.0	NJ	None	None	23.0	23.0	13.0
01396582	Spruce Run at Main Street at Glen Gardner NJ	Non-ref	NorthEast	32.0868	02	40.691389	-74.936944	-74.9892	-74.82633	40.66322	40.79873	32085900.0	47640.0	NJ	None	yes	27.0	27.0	17.0
01396660	MULHOCKAWAY CREEK AT VAN SYCKEL NJ	Non-ref	SEPlains	30.44061	02	40.6475	-74.968889	-75.07605	-74.94463	40.59058	40.70475	30440700.0	35760.0	NJ	None	yes	32.0	32.0	20.0
01396800	SPRUCE RUN AT CLINTON NJ	Non-ref	NorthEast	107.8434	02	40.64	-74.915556	-75.07657	-74.82633	40.59026	40.79873	107842000.0	85680.0	NJ	None	yes	49.0	49.0	20.0
01397000	SOUTH BRANCH RARITAN RIVER AT STANTON NJ	Non-ref	NorthEast	388.6272	02	40.5725	-74.867778	-75.07657	-74.61764	40.5318	40.92754	388626000.0	195060.0	NJ	None	yes	93.0	60.0	20.0
01398000	NESHANIC RIVER AT REAVILLE NJ	Non-ref	SEPlains	65.97871	02	40.473333	-74.827778	-74.96496	-74.8002	40.40893	40.56796	65985300.0	57360.0	NJ	None	yes	79.0	60.0	20.0
01398500	NORTH BRANCH RARITAN RIVER NEAR FAR HILLS NJ	Non-ref	NorthEast	68.9211	02	40.708333	-74.636111	-74.69828	-74.55003	40.68755	40.8683	68919300.0	66960.0	NJ	None	yes	86.0	58.0	20.0
01399100	Middle Brook at Burnt Mills NJ	Non-ref	SEPlains	16.9515	02	40.649444	-74.681667	-74.73066	-74.64612	40.62748	40.75135	16951500.0	33540.0	NJ	None	yes	3.0	3.0	3.0
01399500	LAMINGTON (BLACK) RIVER NEAR POTTERSVILLE NJ	Non-ref	NorthEast	83.48874	02	40.7275	-74.730278	-74.81707	-74.57864	40.70607	40.93611	83488700.0	71406.6	NJ	None	yes	88.0	60.0	20.0
01399510	UPPER COLD BROOK NEAR POTTERSVILLE NJ	Non-ref	NorthEast	5.6898	02	40.721111	-74.752222	-74.79964	-74.72623	40.69832	40.76674	5689800.0	13560.0	NJ	None	None	24.0	24.0	7.0
01399670	SB ROCKAWAY CREEK AT WHITEHOUSE STATION NJ	Non-ref	SEPlains	30.9474	02	40.619444	-74.773611	-74.88523	-74.75109	40.58432	40.69644	30947400.0	38880.0	NJ	None	yes	32.0	32.0	20.0
01400000	NORTH BRANCH RARITAN RIVER NEAR RARITAN NJ	Non-ref	NorthEast	485.0956	02	40.570556	-74.679167	-74.88507	-74.54564	40.54629	40.93611	485096000.0	130294.0	NJ	None	yes	86.0	60.0	20.0
01400500	RARITAN RIVER AT MANVILLE NJ	Non-ref	SEPlains	1271.465	02	40.555	-74.583611	-75.07657	-74.54466	40.38491	40.93087	1271470000.0	284100.0	NJ	None	yes	91.0	60.0	20.0
01401000	STONY BROOK AT PRINCETON NJ	Non-ref	SEPlains	115.1827	02	40.333056	-74.681944	-74.89904	-74.63627	40.27997	40.46082	115178000.0	93720.0	NJ	None	yes	56.0	56.0	20.0
