gauge_id	huc_02	gauge_name	MINLON	MAXLON	MINLAT	MAXLAT	gauge_lat	gauge_lon	elev_mean	slope_mean	area_gages2	area_geospa_fabric	p_mean	pet_mean	p_seasonality	frac_snow	aridity	high_prec_freq	high_prec_dur	high_prec_timing	low_prec_freq	low_prec_dur	low_prec_timing
01013500	01	Fish River near Fort Kent, Maine	-68.37661	-68.33612	46.88278	46.92311	47.23739	-68.58264	250.31	21.64152	2252.7	2303.95	3.12667898699521	1.97155451060917	0.187940258706929	0.313440357191799	0.63055865946247	12.95	1.34895833333333	son	202.2	3.4271186440678	mam
01022500	01	Narraguagus River at Cherryfield, Maine	-68.3154	-67.85154	44.57195	45.03365	44.60797	-67.93524	92.68	17.79072	573.6	620.38	3.60812594113621	2.11925594798084	-0.114529586491395	0.245259009248271	0.587356423405076	20.55	1.20527859237537	son	233.65	3.66222570532915	jja
01030500	01	Mattawamkeag River near Mattawamkeag, Maine	-67.86003	-67.81955	45.34581	45.38614	45.50097	-68.30596	143.8	12.79195	3676.17	3676.09	3.2744052019165	2.04359356605065	0.0473581892739792	0.27701840295357	0.624111385131731	17.15	1.20774647887324	son	215.6	3.51426242868786	djf
01031500	01	Piscataquis River near Dover-Foxcroft, Maine	-69.3581	-69.31763	45.10309	45.14342	45.17501	-69.3147	247.8	29.56035	769.05	766.53	3.5229568788501	2.07132369609856	0.104090599122482	0.291836473001958	0.587950340389816	18.9	1.14893617021277	son	227.35	3.47364400305577	djf
01047000	01	Carrabassett River near North Anson, Maine	-70.41467	-69.92788	44.75817	45.23691	44.8692	-69.9551	310.38	49.92122	909.1	904.94	3.32314579055441	2.09002387405886	0.147775613761867	0.280118126940736	0.628929335570973	20.1	1.16521739130435	son	235.9	3.69170579029734	djf
01052500	01	Diamond River near Wentworth Location, NH	-71.36138	-71.03292	44.81474	45.1473	44.87739	-71.05749	615.7	60.05183	383.82	396.1	3.73085831622177	2.09642323066393	0.152096802769543	0.352698254049326	0.561914458543945	13.5	1.12970711297071	jja	193.5	2.89670658682635	mam
01054200	01	Wild River at Gilead, Maine	-71.20032	-70.90881	44.20571	44.41574	44.39044	-70.97964	472.31	90.13951	180.98	181.33	4.06713210130048	2.12835505817933	0.104959634640742	0.299641539662879	0.523306104932953	17.5	1.19453924914676	son	220.3	3.2637037037037	mam
01055000	01	Swift River near Roxbury, Maine	-70.79936	-70.49633	44.61292	44.87044	44.64275	-70.58878	423.12	72.81304	250.64	251.16	3.49418343600274	2.09323529089665	0.167229040772146	0.306048851694867	0.599062793707035	19.15	1.16768292682927	son	224.85	3.3786626596544	mam
01057000	01	Little Androscoggin River near South Paris, Maine	-70.76364	-70.44971	44.26135	44.4336	44.30399	-70.53968	215.59	32.68445	190.92	197.7	3.57049965776865	2.13274377823409	0.07913684920672	0.251157672769098	0.597323619284961	20.35	1.16954022988506	son	239.3	3.74784651527016	djf
01073000	01	OYSTER RIVER NEAR DURHAM, NH	-71.07776	-70.92185	43.10191	43.20727	43.1487	-70.96506	37.67	4.75043	31.3	32.11	3.50302532511978	2.20761571526352	0.0303700126107958	0.17503243505174	0.63020261356176	20.85	1.22647058823529	son	249	4.01612903225806	jja
01078000	01	SMITH RIVER NEAR BRISTOL, NH	-72.04309	-71.71945	43.44724	43.66767	43.56646	-71.74786	346.92	49.77182	222.46	221.86	3.56288843258042	2.18414457221081	0.110482096549246	0.23971852199071	0.613026372714384	21.45	1.17213114754098	son	234.5	3.61603700848111	djf
01118300	01	PENDLETON HILL BROOK NEAR CLARKS FALLS, CT.	-71.88356	-71.79976	41.42979	41.53355	41.47482	-71.83424	36.7	8.76539	10.36	13.71	3.89743052703628	2.31003697467488	-0.0377431870575169	0.111232483325858	0.592707672054773	21.5	1.29518072289157	son	244.6	4	jja
01121000	01	MOUNT HOPE RIVER NEAR WARRENVILLE, CT.	-72.24701	-72.09646	41.7579	41.99371	41.84371	-72.16897	141.54	16.99385	70.25	94.7	3.71959069130732	2.30140843258042	0.0040983243960094	0.154227151059507	0.618726258767883	21.5	1.19777158774373	son	241.7	3.72132409545804	son
01123000	01	LITTLE RIVER NEAR HANOVER, CT.	-72.11882	-71.99415	41.62772	41.86584	41.67177	-72.0523	120.1	17.14893	77.85	84.21	3.82424229979466	2.30633352498289	-0.00119003057174594	0.136053399026134	0.603082478614581	21.15	1.2332361516035	son	241.1	3.8793242156074	son
01134500	01	MOOSE RIVER AT VICTORY, VT	-71.92745	-71.67746	44.46014	44.71556	44.51172	-71.83731	450.54	47.54354	195.13	209.5	3.46741273100616	2.09169808350445	0.228672352531939	0.280582089228151	0.603244622366455	15.85	1.15272727272727	jja	201.1	2.84240282685512	mam
01137500	01	AMMONOOSUC RIVER AT BETHLEHEM JUNCTION, NH	-71.69604	-71.28345	44.14814	44.33386	44.26867	-71.63036	784.85	110.13062	228.55	238.32	3.9841916495551	2.14404598220397	0.171647707579182	0.301814975818189	0.538138265121706	15.5	1.28099173553719	son	204.35	2.98975859546452	mam
01139000	01	WELLS RIVER AT WELLS RIVER, VT	-72.3762	-72.02253	44.09996	44.34379	44.15034	-72.06509	373.34	43.10796	246.33	259.5	3.13454757015743	2.11398028747433	0.232161714254733	0.246562671549799	0.674413209612946	18.65	1.1692789968652	jja	219.65	3.2277736958119	mam
01139800	01	EAST ORANGE BRANCH AT EAST ORANGE, VT	-72.42353	-72.29682	44.04776	44.15009	44.09284	-72.33565	518.15	40.99895	22.8	24.92	3.30351540041068	2.12718533880903	0.225579083207184	0.26232897318021	0.643915671936808	19.45	1.16467065868263	jja	225.55	3.27834302325581	mam
01142500	01	AYERS BROOK AT RANDOLPH, VT	-72.73516	-72.59015	43.90845	44.08652	43.93451	-72.65788	346.62	46.92575	82.17	79.91	3.31467077344285	2.1470467761807	0.174619920121052	0.252307890542821	0.647740582076158	19.8	1.12820512820513	jja	224.75	3.20613409415121	mam
01144000	01	WHITE RIVER AT WEST HARTFORD, VT	-73.00165	-72.33146	43.64471	44.12704	43.71424	-72.41815	459.8	60.29261	1790.24	1780.65	3.42085968514716	2.15774034223135	0.191150163759349	0.248466348504845	0.630759674709817	19.05	1.13392857142857	jja	225.15	3.3159057437408	mam
01162500	01	PRIEST BROOK NEAR WINCHENDON, MA	-72.139	-72.09577	42.64658	42.68872	42.68259	-72.11508	310.07	18.45782	49.71	77.93	3.78353456536619	2.25749036276523	0.0474461468819081	0.226769184680043	0.596661752063771	21.1	1.14673913043478	son	240.45	3.63492063492063	son
01169000	01	NORTH RIVER AT SHATTUCKVILLE, MA	-72.90035	-72.65745	42.60083	42.86236	42.63842	-72.72509	374.89	49.54362	230.64	233.88	3.92116632443532	2.25251653661875	0.0638282505914665	0.238972605896079	0.574450648160949	19.6	1.1264367816092	son	228.15	3.44117647058824	son
01170100	01	GREEN RIVER NEAR COLRAIN, MA	-72.82949	-72.62131	42.66807	42.8879	42.70342	-72.67065	325.71	49.33091	106.99	109.26	3.89458179329227	2.24278746064339	0.0655190976178011	0.234653735405934	0.575873759926214	19.95	1.10833333333333	son	226.35	3.37332339791356	son
01181000	01	WEST BRANCH WESTFIELD RIVER AT HUNTINGTON, MA	-73.18092	-72.85448	42.19084	42.43442	42.23731	-72.89565	417.93	33.2844	243.5	245.72	3.81502395619439	2.26609874058864	0.0919323135470982	0.217563041040592	0.593993318681319	20.4	1.15909090909091	son	231.1	3.45440956651719	son
01187300	01	HUBBARD RIVER NR. WEST HARTLAND, CT.	-73.0662	-72.90435	42.00639	42.14875	42.03732	-72.93899	309.1	38.2676	53.92	54.22	3.95060780287474	2.28059778234086	0.0873629542971678	0.201269335695146	0.57727769906224	21.15	1.18156424581006	son	236.55	3.60869565217391	son
01195100	01	INDIAN RIVER NEAR CLINTON, CT.	-72.59451	-72.50166	41.27427	41.39251	41.30593	-72.5312	19.17	7.9307	14.84	15.96	3.68248186173854	2.35399319644079	-0.00227965200401194	0.106042892091717	0.639240948040801	22.6	1.28045325779037	son	252.8	4.18889809444905	jja
01333000	02	GREEN RIVER AT WILLIAMSTOWN, MA	-73.34536	-73.13768	42.55727	42.73598	42.70897	-73.19677	485.91	74.78725	112.16	111.5	3.7046392881588	2.21271838466804	0.146314738839023	0.222244968016498	0.597283085492449	19	1.21019108280255	son	227.9	3.40912490650711	son
01350000	02	SCHOHARIE CREEK AT PRATTSVILLE NY	-74.5109	-74.04456	42.09462	42.39997	42.31953	-74.43654	612.78	88.25169	612.51	614.25	3.86979603011636	2.24600206707734	0.111819706171743	0.231159657658639	0.580392881071257	20.4	1.17241379310345	son	235.9	3.52879581151832	son
01350080	02	MANOR KILL AT WEST CONESVILLE NEAR GILBOA NY	-74.45687	-74.23991	42.33576	42.47089	42.37703	-74.41292	587.35	60.00338	83.84	89.57	3.49282546201232	2.23903277207392	0.145064802029245	0.221156578322867	0.641037691812962	20	1.16618075801749	son	235.75	3.46946284032377	son
01350140	02	MINE KILL NEAR NORTH BLENHEIM NY	-74.62488	-74.43463	42.39504	42.4996	42.42897	-74.47293	579.74	61.8248	43.76	47.57	3.50142231348392	2.24050105407255	0.15749326322031	0.219859026682811	0.639883125621386	18.4	1.17948717948718	son	227.4	3.28375451263538	son
01365000	02	RONDOUT CREEK NEAR LOWES CORNERS NY	-74.52417	-74.32018	41.8338	41.99698	41.86648	-74.4871	465.17	51.87268	99.57	102.57	4.21143600273785	2.30295430527036	0.122173899478694	0.202270211093681	0.546833503767649	19.4	1.17220543806647	son	230.15	3.42230483271375	son
01411300	02	TUCKAHOE RIVER AT HEAD OF RIVER NJ	-74.93422	-74.79663	39.24776	39.47029	39.30694	-74.82056	15.25	2.0326	79.32	79.37	3.17544969199179	2.53494392881588	0.0485622074537191	0.0480948550351646	0.79829446997973	22.85	1.33625730994152	son	261.7	4.68157423971377	son
01413500	02	EAST BR DELAWARE R AT MARGARETVILLE NY	-74.7061	-74.39735	42.00412	42.38679	42.14481	-74.65349	724.51	69.6517	424.1	434	3.83254620123203	2.23476543463381	0.146606145385192	0.216908033968228	0.583102020770268	18.7	1.15432098765432	son	224.6	3.19034090909091	son
01414500	02	MILL BROOK NEAR DUNRAVEN NY	-74.76942	-74.55043	42.02499	42.13493	42.1062	-74.73043	775.58	59.57585	64.45	67.08	3.97997125256674	2.22974611909651	0.154116607149121	0.216628505016047	0.560241764977201	19.35	1.16216216216216	son	223.8	3.15211267605634	son
01415000	02	TREMPER KILL NEAR ANDES NY	-74.87303	-74.71246	42.09494	42.26117	42.12009	-74.81849	604.34	64.53263	85.63	86.68	3.77312251882272	2.23751144421629	0.147821520346755	0.213452184948768	0.593013196113873	18.3	1.18064516129032	son	215.55	3.06832740213523	son
01423000	02	WEST BRANCH DELAWARE RIVER AT WALTON NY	-75.22536	-74.53852	42.10757	42.48259	42.1662	-75.13989	593.67	49.86765	859.68	861.78	3.70376043805613	2.22675995893224	0.142460684938053	0.217830297712483	0.601215979319906	15.95	1.16	son	211.35	3.00640113798009	son
01434025	02	BISCUIT BK ABOVE PIGEON BK AT FROST VALLEY NY	-74.52449	-74.44404	41.97253	42.05493	41.99537	-74.50099	729.33	59.4071	9.7	9.9	4.43700205338809	2.27243437371663	0.134901264841231	0.23781373120698	0.512155357688285	19.15	1.17846153846154	son	224.8	3.21602288984263	son
01435000	02	NEVERSINK RIVER NEAR CLARYVILLE NY	-74.65131	-74.33796	41.85139	42.05493	41.89009	-74.58988	560.05	54.94492	172.46	183.31	4.31765366187543	2.29707295003422	0.134640859394044	0.223616269388589	0.532018806954623	19.5	1.16766467065868	son	226.65	3.28955007256894	son
01439500	02	Bush Kill at Shoemakers, PA	-75.22051	-75.18007	41.24502	41.28534	41.08815	-75.03767	307.06	22.25987	305.88	306.09	3.68325804243669	2.34455796030116	0.117754852021999	0.163765228832016	0.636544584519553	20	1.19402985074627	son	235.75	3.59649122807018	son
01440000	02	FLAT BROOK NEAR FLATBROOKVILLE NJ	-74.99065	-74.65056	41.06858	41.32759	41.10667	-74.95222	234.2	28.80165	167.72	171.56	3.5498932238193	2.34301589322382	0.107574487206617	0.147767408338048	0.660024329042491	20.3	1.23780487804878	son	242	3.92857142857143	son
01440400	02	Brodhead Creek near Analomink, PA	-75.3798	-75.14731	41.06026	41.29234	41.08481	-75.21462	334.06	26.46515	175.21	178.98	3.75335112936345	2.33639033538672	0.115866620943282	0.172223371092882	0.622481152138559	20.4	1.17919075144509	son	234.9	3.55639666919001	son
01451800	02	Jordan Creek near Schnecksville, PA	-75.78993	-75.57464	40.55621	40.76652	40.66176	-75.62685	180.41	14.8941	135.84	149.11	3.50320739219713	2.41885085557837	0.106707705141109	0.128362665991427	0.690467501571846	23.8	1.23316062176166	son	254.25	4.18863261943987	son
01466500	02	MCDONALDS BRANCH IN LEBANON STATE FOREST NJ	-74.53051	-74.4506	39.83637	39.91124	39.885	-74.50528	38.94	2.53456	5.38	6.25	3.53983709787817	3.05982084873374	0.0603116014654338	0.0626617697616761	0.864395949341242	23.45	1.2573726541555	jja	257.65	4.48086956521739	son
01484100	02	BEAVERDAM BRANCH AT HOUSTON, DE	-75.54014	-75.49965	38.85085	38.89143	38.90578	-75.51275	17.97	1.03721	9	9.66	3.32127310061602	2.60261437371663	0.086186780114633	0.042571686471381	0.783619502182434	23.45	1.20876288659794	jja	256.9	4.3616298811545	son
01485500	02	NASSAWANGO CREEK NEAR SNOW HILL, MD	-75.55459	-75.38833	38.20351	38.40844	38.22892	-75.47144	15.46	1.66864	141.54	112.98	3.24057905544148	2.63029956194387	0.0843833161666125	0.0316363803800455	0.81167578909305	22.55	1.19946808510638	jja	257.9	4.41988003427592	son
01486000	02	MANOKIN BRANCH NEAR PRINCESS ANNE, MD	-75.7144	-75.5888	38.17244	38.26342	38.21389	-75.67139	10.21	1.47125	11.18	15.99	3.27441615331964	2.67482754277892	0.0961845906073908	0.0306008333747916	0.816886863958066	22.8	1.22252010723861	jja	258.05	4.3998294970162	son
01487000	02	NANTICOKE RIVER NEAR BRIDGEVILLE, DE	-75.56609	-75.52568	38.71219	38.75251	38.72833	-75.56186	13.84	1.09998	187.41	187.18	3.33903901437372	2.60757013004791	0.087683751380464	0.0424689894259026	0.780934310387804	23.05	1.24594594594595	jja	256.65	4.425	son
01491000	02	CHOPTANK RIVER NEAR GREENSBORO, MD	-75.64855	-75.60813	38.9824	39.02272	38.99719	-75.78581	18.54	1.41948	292.04	291.8	3.30507597535934	2.59245613963039	0.0812091871751497	0.0500257211233794	0.784386246778647	21.85	1.21388888888889	mam	255.55	4.37585616438356	son
01510000	02	OTSELIC RIVER AT CINCINNATUS NY	-75.69828	-75.65783	42.69578	42.7361	42.54118	-75.89964	482.21	28.76423	382.99	382.92	3.46229431895962	2.24082006844627	0.140558277002909	0.237057400622962	0.647206696488938	16.2	1.10958904109589	jja	200.85	2.86519258202568	jja
01516500	02	Corey Creek near Mainesburg, PA	-77.03681	-76.89859	41.71447	41.82522	41.79091	-77.01469	634.59	29.79686	31.48	31.56	3.18264339493498	2.26610529774127	0.164481435383888	0.199238597784613	0.712019857879042	18.25	1.11620795107034	son	232.75	3.35374639769452	son
01518862	02	Cowanesque River at Westfield, PA	-77.7769	-77.47344	41.80595	42.05616	41.92313	-77.53193	600.87	37.28156	233.91	234.49	3.03164134154689	2.26778507871321	0.219951114054223	0.201111344911574	0.748038710131879	18.5	1.13846153846154	jja	221.2	3.2197962154294	son
01532000	02	Towanda Creek near Monroeton, PA	-76.68934	-76.64891	41.72562	41.76593	41.70702	-76.48467	507.14	40.91626	553.94	556.68	3.19507871321013	2.2969073100616	0.165405170969813	0.176741266621108	0.718889115490327	18.8	1.11904761904762	son	230.75	3.31061692969871	son
01539000	02	Fishing Creek near Bloomsburg, PA	-76.57679	-76.09977	41.0467	41.39403	41.07814	-76.43106	333.75	32.47937	701.78	705.22	3.42342778918549	2.36010184804928	0.139032279637061	0.156285913306627	0.689397292241646	20.4	1.13649025069638	son	236	3.53029169783096	son
01542810	02	Waldy Run near Emporium, PA	-78.33915	-78.24556	41.55779	41.65968	41.57895	-78.29251	492.7	45.55723	13.62	13.58	3.42252840520192	2.26875292265572	0.176183031608911	0.189716485804691	0.662887974635193	15.85	1.11228070175439	jja	207.3	2.98488120950324	jja
01543000	02	Driftwood Br Sinnemahoning Cr at Sterling Run, PA	-78.58278	-78.06358	41.38861	41.7127	41.4134	-78.19695	543.37	36.53752	705.5	704.47	3.39001916495551	2.27667656399726	0.171896450036472	0.188056577083995	0.671582210369935	16.45	1.09302325581395	jja	211.05	3.01715511079342	son
01543500	02	Sinnemahoning Creek at Sinnemahoning, PA	-78.11755	-78.07493	41.29632	41.33832	41.31728	-78.10306	547.44	31.28232	1778.26	1778.96	3.40892950034223	2.2839264476386	0.17043837870638	0.181653610941671	0.669983479391203	17.1	1.0926517571885	jja	210.65	3.02223816355811	son
01544500	02	Kettle Creek at Cross Fork, PA	-77.81697	-77.77654	41.62973	41.67004	41.4759	-77.82582	551.6	36.26274	355.06	363.08	3.36351950718686	2.29069518138261	0.169194741715045	0.20336289315932	0.681041146480069	17.5	1.10759493670886	jja	217.6	3.0712773465067	son
01545600	02	Young Womans Creek near Renovo, PA	-77.72238	-77.53798	41.34542	41.57423	41.38951	-77.69082	518.97	53.68312	120	123.62	3.3845749486653	2.29803195071869	0.170227599082201	0.192645540908709	0.678972097109243	17.55	1.09006211180124	jja	219.95	3.09788732394366	jja
01547700	02	Marsh Creek at Blanchard, PA	-77.87828	-77.57614	40.96088	41.11669	41.05951	-77.60583	353.57	43.0263	113.54	115.19	3.13501300479124	2.34739815195072	0.138997636961363	0.156172998266035	0.748768234250764	20.4	1.13333333333333	jja	229.7	3.32657494569153	son
01548500	02	Pine Creek at Cedar Run, PA	-77.9178	-77.09665	41.45397	41.94908	41.52174	-77.44748	546.71	39.14167	1557.05	1557.98	3.15334565366188	2.27178221765914	0.179163892505052	0.202088630482319	0.720435520609989	18.1	1.12074303405573	jja	221	3.17757009345794	son
01549500	02	Blockhouse Creek near English Center, PA	-77.25864	-77.04609	41.42436	41.64144	41.47368	-77.23081	528.16	32.39343	97.49	98.91	3.33222587268994	2.29380824093087	0.149932720435469	0.186519052942025	0.688371175474727	19.05	1.20569620253165	son	234.5	3.51837959489872	son
01550000	02	Lycoming Creek near Trout Run, PA	-77.12769	-76.74089	41.38656	41.67237	41.41841	-77.03275	455.41	46.28526	452.68	456.32	3.3697659137577	2.29290721423682	0.154280420357333	0.179825512854574	0.680435161645977	17.8	1.20677966101695	son	230.85	3.47404063205418	son
01552000	02	Loyalsock Creek at Loyalsockville, PA	-76.24217	-76.20174	41.47616	41.51648	41.32508	-76.91246	461.43	37.27533	1129.49	1129.55	3.47699794661191	2.31166417522245	0.153983558785624	0.17305912288721	0.664844849124805	18.55	1.17034700315457	son	224.9	3.40757575757576	son
01552500	02	Muncy Creek near Sonestown, PA	-76.57368	-76.35531	41.31235	41.43484	41.35702	-76.53467	535.24	46.46363	60.64	62.06	3.6230855578371	2.29199939767283	0.13878699868632	0.185169707979555	0.632609791042611	19.6	1.1264367816092	son	230.95	3.37646198830409	son
01557500	02	Bald Eagle Creek at Tyrone, PA	-78.31321	-78.10396	40.6566	40.82068	40.68367	-78.23362	389.99	38.17147	115.3	117.78	3.15309924709103	2.35959611225188	0.142811219027817	0.15867182381751	0.748341846336992	18.95	1.12462908011869	jja	229.7	3.40044411547002	son
01567500	02	Bixler Run near Loysville, PA	-77.52803	-77.36228	40.33687	40.4469	40.37092	-77.40221	314.48	46.47316	38.77	39.5	3.21283915126626	2.43381370294319	0.112811392208755	0.126036065938383	0.757527404378139	21.3	1.21367521367521	son	253.1	4.22185154295246	son
01568000	02	Sherman Creek at Shermans Dale, PA	-77.60408	-77.56366	40.18126	40.22157	40.32342	-77.16887	265.52	34.52646	534.39	536.4	3.3297015742642	2.42495415468857	0.104799526495014	0.128510858031358	0.72827972735798	21.2	1.23255813953488	son	248.7	4.21525423728814	son
01580000	02	DEER CREEK AT ROCKS, MD	-76.70797	-76.36618	39.59121	39.80798	39.62997	-76.40331	174.3	12.44242	244.37	246.96	3.43172758384668	2.52725252566735	0.0846330195094805	0.0816880923954386	0.736437396011053	22	1.19891008174387	mam	248.05	4.29152249134948	son
01583500	02	WESTERN RUN AT WESTERN RUN, MD	-76.86892	-76.6198	39.43545	39.62526	39.51078	-76.6765	156.32	13.67585	155.85	163.42	3.26212594113621	2.55289648186174	0.084653816923074	0.0807286497637625	0.782586732679167	22.4	1.22070844686649	son	248.8	4.25299145299145	son
01586610	02	MORGAN RUN NEAR LOUISVILLE, MD	-77.09847	-76.92957	39.42408	39.56651	39.45189	-76.95531	196.88	11.85286	72.7	72.81	3.30466119096509	2.54404796714579	0.080269251363156	0.088413478566147	0.769836246481542	22.4	1.20107238605898	son	249.1	4.2948275862069	son
01591400	02	CATTAIL CREEK NEAR GLENWOOD, MD	-77.13887	-76.99524	39.23016	39.37341	39.25597	-77.05106	149.21	7.79146	59.09	59.61	3.28500616016427	2.62402350444901	0.0762067370568662	0.0838764227317032	0.798788001151812	23.1	1.22546419098143	son	253.55	4.40573414422242	son
01594950	02	MCMILLAN F NEAR FORT PENDLETON, MD	-79.45007	-79.36956	39.24947	39.32258	39.27669	-79.39031	899.82	37.38218	6.12	6.1	3.92110335386721	2.45343430527036	0.0678195614528781	0.189214297334908	0.625699983870776	15.25	1.10108303249097	jja	194.25	2.84198975859546	son
01596500	02	SAVAGE RIVER NEAR BARTON, MD	-79.18918	-78.90783	39.53891	39.73613	39.57006	-79.10194	663.42	53.96684	124.65	127.51	3.31426557152635	2.43686744695414	0.101570564796358	0.188402157557544	0.735266198306452	19.15	1.09116809116809	mam	223.15	3.25528811086798	son
01605500	02	SOUTH BRANCH POTOMAC RIVER AT FRANKLIN, WV	-79.66635	-79.26676	38.37772	38.68046	38.63567	-79.33782	856.86	70.44106	463.85	474.38	3.20968925393566	2.51657186858316	0.0983997937787151	0.137136101417764	0.784054676164488	19.15	1.24350649350649	mam	232.35	3.82469135802469	son
01606500	02	SO. BRANCH POTOMAC RIVER NR PETERSBURG, WV	-79.71968	-79.10749	38.37772	39.09237	38.99122	-79.17587	836.38	75.86214	1684.55	1686.61	3.36347707049966	2.49905597535934	0.0995538398003471	0.148750518921295	0.742997773725896	17	1.19298245614035	mam	214.95	3.39841897233202	son
01613050	02	Tonoloway Creek near Needmore, PA	-78.22969	-78.11091	39.87604	39.97497	39.89842	-78.13223	261.6	35.54433	27.9	27.96	3.08850513347023	2.44674617385352	0.12290865041956	0.130491593433601	0.792210492816755	21	1.15384615384615	jja	246.7	3.86980392156863	son
01620500	02	NORTH RIVER NEAR STOKESVILLE, VA	-79.34293	-79.20162	38.29253	38.47603	38.33763	-79.24004	786.35	74.979	44.74	61.34	3.3986160164271	2.52771782340862	0.1758565372308	0.123997407649528	0.743749164716161	22.25	1.27507163323782	jja	252.15	4.48665480427046	son
01632000	02	N F SHENANDOAH RIVER AT COOTES STORE, VA	-79.11312	-78.78798	38.51298	38.88366	38.63706	-78.8528	543.76	51.70815	543.36	547.28	2.93104038329911	2.54998795345654	0.219424492400899	0.110024870103334	0.869994138595365	20.55	1.22321428571429	jja	247.75	4.29376083188908	son
01632900	02	SMITH CREEK NEAR NEW MARKET, VA	-78.87881	-78.83841	38.45771	38.49803	38.69345	-78.64279	417.29	48.62437	245.05	249.2	2.90811225188227	2.59282922655715	0.21511509838191	0.0980763292373855	0.891584987779941	21.45	1.19832402234637	jja	251.6	4.37185056472632	son
01634500	02	CEDAR CREEK NEAR WINCHESTER, VA	-78.63629	-78.25385	38.9195	39.20678	39.08122	-78.32945	344.44	47.4082	263.98	264.49	2.97918001368925	2.52366402464066	0.217653092829487	0.114828393813144	0.847100213160832	22	1.14583333333333	jja	257.35	4.45242214532872	son
01638480	02	CATOCTIN CREEK AT TAYLORSTOWN, VA	-77.83156	-77.53588	39.1078	39.3002	39.25455	-77.57638	155.98	16.88797	232	233.83	3.03442299794661	2.55811711156742	0.129989148700473	0.0845583823488279	0.843032468874146	21.7	1.24355300859599	son	254	4.57245724572457	son
01639500	02	BIG PIPE CREEK AT BRUCEVILLE, MD	-77.26264	-76.86445	39.55942	39.73969	39.61236	-77.23744	198.1	11.61235	267.18	267.17	3.23323887748118	2.53529493497604	0.0731741829672151	0.0961263501421113	0.784134742605576	21.75	1.18528610354223	son	251.25	4.23693086003373	son
01644000	02	GOOSE CREEK NEAR LEESBURG, VA	-78.09548	-77.55686	38.82034	39.18684	39.01955	-77.57749	187.25	23.95326	859.17	859.58	3.04764818617385	2.5575617522245	0.156688497997198	0.084351798741144	0.83919192636056	22.05	1.225	son	254.8	4.4780316344464	son
01658500	02	S F QUANTICO CREEK NEAR INDEPENDENT HILL, VA	-77.49989	-77.38516	38.55941	38.66112	38.58734	-77.4286	97.44	6.88385	19.34	23.69	3.21813963039014	2.68545728952772	0.106219759238228	0.0693570115673005	0.834475068815505	22.4	1.2409972299169	son	257	4.7460757156048	son
01664000	02	RAPPAHANNOCK RIVER AT REMINGTON, VA	-78.39241	-77.77552	38.44546	38.91596	38.53068	-77.8136	216.1	30.32647	1605.1	1604.64	3.14902806297057	2.57200380561259	0.174188172204434	0.0827964257846037	0.816761157468489	22.25	1.2027027027027	son	255.55	4.45209059233449	son
01666500	02	ROBINSON RIVER NEAR LOCUST DALE, VA	-78.46264	-78.04326	38.29156	38.61758	38.32513	-78.09556	201.59	24.98287	463.15	466.17	3.20091170431211	2.65812646132786	0.184505365979813	0.0822553978033295	0.830427923940219	22.4	1.20107238605898	son	256.75	4.45746527777778	son
01667500	02	RAPIDAN RIVER NEAR CULPEPER, VA	-78.54617	-77.95105	38.10167	38.61758	38.35041	-77.975	193.47	23.44026	1209.75	1210.75	3.20798220396988	2.68815648186174	0.178906478344439	0.0788117934771709	0.837958664027232	21.9	1.23033707865169	son	255.3	4.46328671328671	son
01669000	02	PISCATAWAY CREEK NEAR TAPPAHANNOCK, VA	-77.06245	-76.85905	37.80643	37.92622	37.87708	-76.90052	42.94	4.09652	71.84	75.31	3.19697330595483	2.67805388090349	0.163706744271302	0.0412059832430486	0.83768415454556	22	1.16402116402116	jja	255	4.54140694568121	son
01669520	02	DRAGON SWAMP AT MASCOT, VA	-76.75804	-76.71763	37.59644	37.63676	37.63375	-76.69635	25.42	4.97296	277.39	277.68	3.27315947980835	2.69015121149897	0.177758044868111	0.0368199149910729	0.821882107515423	22.65	1.17357512953368	jja	252.75	4.48934280639432	son
02011400	02	JACKSON RIVER NEAR BACOVA, VA	-79.92193	-79.54313	37.97848	38.45784	38.04235	-79.88144	783.86	73.92744	407.72	409.88	3.28856536618754	2.54304951403149	0.0716663925589396	0.129154721501962	0.773300582733942	20.1	1.22188449848024	mam	236.65	3.75634920634921	son
02011460	02	BACK CREEK NEAR SUNRISE, VA	-79.90303	-79.60622	38.09314	38.50473	38.2454	-79.76866	878.38	77.10338	156.34	235.86	3.40426694045175	2.51674332648871	0.051831815560601	0.148878264866293	0.739290828396299	19.15	1.20820189274448	mam	231.8	3.5937984496124	son
02013000	02	DUNLAP CREEK NEAR COVINGTON, VA	-80.37644	-79.99218	37.54966	37.95918	37.8029	-80.047	691.82	70.85988	424.78	436.13	3.0362765229295	2.59555998631075	0.109973830766796	0.0979143372407574	0.854849670874662	20.65	1.1699716713881	mam	242.6	3.79953014878622	son
02014000	02	POTTS CREEK NEAR COVINGTON, VA	-80.52291	-79.92223	37.412	37.76099	37.72901	-80.04228	691.04	73.63034	396.78	397.25	3.1245735797399	2.5485292128679	0.119622697334622	0.0978680841760858	0.815640645940571	21.15	1.18487394957983	mam	241.15	3.83691328560064	son
02015700	02	BULLPASTURE RIVER AT WILLIAMSVILLE, VA	-79.58377	-79.5402	38.1668	38.20916	38.1954	-79.57032	753.52	68.72646	285.41	286.33	3.19551950718686	2.53775077344285	0.0805015435765321	0.128567248718796	0.794159061691014	20.4	1.25153374233129	mam	242.65	3.98440065681445	son
02016000	02	COWPASTURE RIVER NEAR CLIFTON FORGE, VA	-79.82949	-79.30539	37.73053	38.48268	37.7918	-79.75949	645.04	66.42056	1194.55	1194.92	3.14481451060917	2.57381968514716	0.100530522771781	0.102077363429123	0.818432908034564	21.55	1.21067415730337	mam	243.8	4.07692307692308	son
02017500	02	JOHNS CREEK AT NEW CASTLE, VA	-80.56027	-80.07917	37.32026	37.58921	37.50624	-80.10671	695.27	69.63081	276.15	285.79	3.0252977412731	2.59903960301164	0.140471368476262	0.0901845265568014	0.859102086896714	21.15	1.19154929577465	mam	243.95	4.03890728476821	son
02018000	02	CRAIG CREEK AT PARR, VA	-80.56027	-79.87967	37.25921	37.71934	37.66596	-79.91144	648.68	66.96658	852.34	852.53	3.05576454483231	2.62078272416153	0.134268102907456	0.0849686144296571	0.857652049335285	21	1.23529411764706	mam	242	4.0672268907563	son
02027000	02	TYE RIVER NEAR LOVINGSTON, VA	-79.17907	-78.88107	37.68951	37.93772	37.71542	-78.98169	387.44	57.5512	240.77	241.31	3.46788637919233	2.64478958247775	0.122126478920976	0.0904732223814793	0.762651740364609	21.75	1.23229461756374	mam	260.55	4.61558901682905	son
02027500	02	PINEY RIVER AT PINEY RIVER, VA	-79.21587	-78.98334	37.67523	37.8526	37.70236	-79.02752	350.53	52.51564	123.34	127.87	3.66553456536619	2.6407699247091	0.118218557988777	0.100786018307687	0.720432416504928	22.15	1.22375690607735	mam	261.15	4.585601404741	son
02028500	02	ROCKFISH RIVER NEAR GREENFIELD, VA	-79.01514	-78.71883	37.82786	38.06567	37.86959	-78.82335	377.48	66.86826	245.45	246.19	3.3264476386037	2.59700162902122	0.150820449112661	0.0802569579048301	0.780713214566435	21.2	1.24705882352941	son	258.5	4.66606498194946	son
02038850	02	HOLIDAY CREEK NEAR ANDERSONVILLE, VA	-78.73035	-78.59947	37.384	37.47754	37.41542	-78.63584	176.41	9.80131	22	23.8	3.14961533196441	2.88944821355236	0.0577604953967109	0.0655225978510027	0.917397176800705	23.75	1.19346733668342	son	267.65	4.97953488372093	son
02046000	03	STONY CREEK NEAR DINWIDDIE, VA	-77.94608	-77.56344	36.99588	37.18609	37.06709	-77.60249	86.64	6.04481	288.52	290.88	3.26886379192334	2.74904113620808	0.130911756579488	0.0453728268084367	0.840977572390861	22.85	1.20263157894737	son	260.15	4.57205623901582	son
02051000	03	NORTH MEHERRIN RIVER NEAR LUNENBURG, VA	-78.50561	-78.25509	36.97173	37.1264	36.99737	-78.34972	151.02	7.49999	144.82	145.1	3.17086516084873	2.71902184804928	0.0842178359770876	0.0570245782420973	0.857501568222311	23.95	1.17980295566502	jja	266.75	4.85	son
02051500	03	MEHERRIN RIVER NEAR LAWRENCEVILLE, VA	-78.19632	-78.15592	36.74181	36.78212	36.71681	-77.83166	113.4	6.85615	1428.71	1432.41	3.19027378507871	2.9769690349076	0.120039306078787	0.0525514965704711	0.933139045567573	23.25	1.15960099750623	jja	260.85	4.61273209549072	son
02053200	03	POTECASI CREEK NEAR UNION, NC	-77.12935	-77.08896	36.26706	36.30737	36.37083	-77.02556	25.28	2.20328	583.66	581.6	3.33393155373032	2.79694224503765	0.202374232071145	0.0248316831845784	0.838932113620677	22.25	1.22589531680441	jja	259.95	4.69647696476965	son
02053800	03	S F ROANOKE RIVER NEAR SHAWSVILLE, VA	-80.32125	-80.28086	37.05265	37.09296	37.14013	-80.26643	705.68	36.16538	280.72	288.52	3.22805612594114	2.66746950034223	0.151225610748777	0.0938172550300136	0.826339256900167	20.75	1.19596541786744	mam	246.85	4.23413379073756	son
02055100	03	TINKER CREEK NEAR DALEVILLE, VA	-80.00497	-79.86442	37.37544	37.48712	37.41763	-79.93532	399.99	38.79042	30.54	33.33	3.05622997946612	2.6643679945243	0.142290996689215	0.0622119918873982	0.871782559697856	21.8	1.34567901234568	jja	253.9	4.64168190127971	son
02056900	03	BLACKWATER RIVER NEAR ROCKY MOUNT, VA	-80.08896	-80.04857	36.96848	37.00879	37.04514	-79.8442	423.07	33.49522	298.11	299.46	3.17934428473648	2.70525848049281	0.134597170430821	0.0646059372808137	0.850885666418803	21.8	1.28613569321534	mam	251.35	4.51662174303684	son
02059500	03	GOOSE CREEK NEAR HUDDLESTON, VA	-79.83837	-79.45916	37.11717	37.50539	37.1732	-79.52031	319.14	27.0257	485.41	486.46	3.0996167008898	3.20123958932238	0.0975953355825221	0.0529389162953181	1.03278563068892	21.55	1.2827380952381	son	256.2	4.6624203821656	son
02064000	03	FALLING RIVER NEAR NARUNA, VA	-79.14362	-78.79699	37.09524	37.38527	37.12681	-78.95974	192.21	9.95686	427.77	427.98	3.09549623545517	2.926439137577	0.06366846950694	0.0606011692596163	0.945386107745239	23.4	1.24468085106383	son	264.55	4.89907407407407	son
02065500	03	CUB CREEK AT PHENIX, VA	-78.87421	-78.65773	37.05848	37.35346	37.07931	-78.76362	170.09	10.06294	252.58	252.75	3.13286379192334	3.69527572895277	0.0563549496136721	0.0617139970732649	1.17952007312905	23.2	1.2020725388601	mam	264.65	4.86488970588235	son
02069700	03	SOUTH MAYO RIVER NEAR NETTLERIDGE, VA	-80.40415	-80.08107	36.51233	36.74222	36.57097	-80.12949	372.62	23.01829	221.13	228.68	3.52261054072553	2.71690084873374	0.127439248596637	0.0533951587612168	0.771274830789032	22	1.20218579234973	jja	253.5	4.50266429840142	son
02070000	03	NORTH MAYO RIVER NEAR SPENCER, VA	-80.22655	-79.92291	36.54082	36.77415	36.56819	-79.98726	308.66	12.22606	270.61	279.27	3.30035318275154	3.76161787816564	0.113889877847509	0.0508621647943431	1.13976222236601	22.15	1.26210826210826	mam	255.3	4.64604185623294	son
02074500	03	SANDY RIVER NEAR DANVILLE, VA	-79.73604	-79.46456	36.57295	36.8525	36.61958	-79.50419	223.3	10.70863	288.53	288.79	3.27095003422314	3.42235515400411	0.0937371269589525	0.0524690208413809	1.04628781185798	22.4	1.29855072463768	son	254.85	4.72381835032437	son
02077200	03	HYCO CREEK NEAR LEASBURG, NC	-79.33038	-79.15801	36.19824	36.44461	36.39778	-79.19667	194	7.08453	121.69	126.34	3.27839698836413	2.86084161533196	0.0711893440034286	0.0489889008542847	0.872634286050719	23.25	1.22368421052632	son	257.7	4.52502194907814	son
02081500	03	TAR RIVER NEAR TAR RIVER, NC	-78.59245	-78.55047	36.16885	36.2102	36.19417	-78.58306	132.21	6.46534	428.37	432.82	3.26657905544148	2.79155994524298	0.0972699197764954	0.0436247713972968	0.854582086599984	23.05	1.15829145728643	jja	265.2	4.7654986522911	son
02082950	03	LITTLE FISHING CREEK NEAR WHITE OAK, NC	-78.18164	-77.77127	36.1569	36.46844	36.18333	-77.87611	79.77	6.54582	460.85	461.92	3.26311567419576	3.15805412731006	0.178218747307137	0.0329927432325966	0.967803302924102	22.9	1.16539440203562	jja	260.8	4.64470169189671	son
02092500	03	TRENT RIVER NEAR TRENTON, NC	-77.77851	-77.3994	34.90956	35.18401	35.06417	-77.46139	21.88	2.57074	447.58	435.17	3.78279123887748	3.26780060232717	0.252330607045602	0.0120832517590196	0.863859620045243	20.95	1.28134556574924	jja	254.35	4.50575730735164	son
02096846	03	CANE CREEK NEAR ORANGE GROVE, NC	-79.22805	-79.14024	35.96059	36.0572	35.98722	-79.20611	182.85	7.73462	19.57	19.58	3.34620396988364	3.19013757700205	0.101371880842616	0.0392525452032849	0.953360167435634	23.2	1.18367346938776	son	259.25	4.60479573712256	son
02102908	03	FLAT CREEK NEAR INVERNESS, NC	-79.26207	-79.1501	35.11084	35.20761	35.18278	-79.1775	106.88	10.48159	19.73	20.06	3.35506776180698	3.01971446954141	0.17119043776273	0.0235111757954398	0.900045746889787	23.7	1.264	jja	263.9	4.81130355515041	son
02108000	03	NORTHEAST CAPE FEAR RIVER NEAR CHINQUAPIN, NC	-78.05881	-78.01842	34.80817	34.84848	34.82889	-77.83222	31.61	3.14028	1569.48	1550.74	3.81036824093087	3.20783753593429	0.275438917371904	0.00928192611103966	0.841870741382891	21.2	1.2887537993921	jja	261.05	4.77239488117002	son
02111180	03	ELK CREEK AT ELKVILLE, NC	-81.62409	-81.37439	36.04376	36.2551	36.07139	-81.40306	551.06	56.42993	131.47	130.87	3.71566872005476	2.72063859000684	0.0890534368813299	0.0460568781002514	0.732206984794584	20.1	1.18934911242604	mam	239.25	4.07580919931857	son
02111500	03	REDDIES RIVER AT NORTH WILKESBORO, NC	-81.40277	-81.12909	36.15049	36.399	36.175	-81.16889	454.02	35.95807	233.66	233.35	3.58283504449008	2.94495300479124	0.0689831421155967	0.0523692516718814	0.821961649984469	21.45	1.20505617977528	mam	248.15	4.34208223972004	son
02112120	03	ROARING RIVER NEAR ROARING RIVER, NC	-81.08661	-81.04622	36.23156	36.27187	36.25028	-81.04444	460.03	35.93547	322.27	329.79	3.55881587953457	2.79970703627652	0.0771106154436244	0.0524049751607388	0.786696230163691	21.25	1.20056497175141	mam	252	4.48398576512456	son
02112360	03	MITCHELL RIVER NEAR STATE ROAD, NC	-80.8237	-80.78244	36.28632	36.32817	36.31139	-80.80722	405.86	23.71832	205.3	206.82	3.44035318275154	2.86083683778234	0.0972009068536146	0.0531136274470014	0.831553240558369	22.5	1.18733509234829	mam	251.1	4.45212765957447	son
02118500	03	HUNTING CREEK NEAR HARMONY, NC	-81.16121	-80.69411	35.97683	36.20773	36.00056	-80.74556	336.82	18.17467	400.53	400.53	3.49772073921971	2.85434324435318	0.0645013209437337	0.0413708350211441	0.816058072432033	22.35	1.2382271468144	mam	250.15	4.55646630236794	son
02125000	03	BIG BEAR CR NR RICHFIELD, NC	-80.43489	-80.27456	35.27948	35.51611	35.33472	-80.33556	190.23	9.32187	144.55	145.07	3.23351813826146	3.07863812457221	0.0763693403128905	0.0247912331690011	0.95210170252129	24.2	1.23155216284987	jja	267.9	5.05471698113208	son
02128000	03	LITTLE RIVER NEAR STAR, NC	-79.9492	-79.75031	35.36394	35.71207	35.38722	-79.83139	195.23	8.97028	273.48	271.99	3.24067624914442	2.93767863107461	0.0530263818075362	0.0256704433801346	0.90650173149823	22.45	1.30523255813953	son	255.65	4.88347659980898	son
02137727	03	CATAWBA R NR PLEASANT GARDENS, NC	-82.31528	-82.03213	35.51777	35.75629	35.68583	-82.06028	602.18	65.11037	329.54	329.3	3.981318275154	2.76627763175907	0.0433707275701464	0.0405315310761795	0.69481449122579	18.15	1.2560553633218	djf	237.75	4.23419412288513	son
02140991	03	JOHNS RIVER AT ARNEYS STORE, NC	-81.9025	-81.56058	35.80738	36.16809	35.83361	-81.71194	529.42	43.76522	521.99	522.11	3.72775496235455	2.76834253251198	0.0809251831617219	0.0420384668349782	0.742629963736516	19.95	1.20909090909091	mam	234.95	4.09320557491289	son
02143000	03	HENRY FORK NEAR HENRY RIVER, NC	-81.77552	-81.35323	35.55799	35.74278	35.68444	-81.40333	399.35	27.07084	216.67	222.1	3.70449828884326	2.91763767282683	0.0189528900594071	0.0313262156816952	0.787593203002362	22	1.34969325153374	son	249.55	4.91724137931034	son
02143040	03	JACOB FORK AT RAMSEY, NC	-81.7103	-81.53657	35.54141	35.65322	35.59069	-81.56704	411.33	33.1444	66.48	68.19	4.04584941820671	2.81041832991102	0.00745025542553768	0.0345610698452001	0.694642345625586	22.85	1.36417910447761	mam	256.85	5.04121687929343	son
02149000	03	COVE CREEK NEAR LAKE LURE, NC	-82.25411	-81.99348	35.40194	35.63101	35.42345	-82.1115	403.91	39.54624	203.85	203.73	3.82159753593429	2.99409058179329	0.0478472780280605	0.029590457635321	0.78346569821652	20.35	1.26791277258567	son	245.6	4.55658627087199	son
02152100	03	FIRST BROAD RIVER NEAR CASAR, NC	-81.86456	-81.63669	35.46157	35.63224	35.49306	-81.68222	414.31	40.11642	154.99	156.68	3.77346201232033	3.10972069815195	0.00816758468434853	0.0300807469143999	0.824102823348621	23.15	1.34202898550725	son	255.25	4.91337824831569	son
02177000	03	CHATTOOGA RIVER NEAR CLAYTON, GA	-83.39091	-83.0179	34.78478	35.14543	34.81398	-83.30599	705.59	47.86459	526.77	527.23	5.37447775496235	2.81164224503765	-0.0368598641018398	0.0267395574591906	0.523147061580375	18.95	1.24671052631579	son	231.7	4.18231046931408	son
02178400	03	TALLULAH RIVER NEAR CLAYTON, GA	-83.62257	-83.43167	34.85703	35.06005	34.89037	-83.53044	797.91	59.8088	151.28	152.12	5.21309240246407	2.81214142368241	-0.0770469741459704	0.033836252850455	0.539438246357037	20.15	1.27936507936508	djf	236.65	4.18479221927498	son
02193340	03	KETTLE CREEK NEAR WASHINGTON, GA	-82.89616	-82.85579	33.73546	33.77576	33.68263	-82.85792	167.93	7.49879	87.87	89.61	3.27406570841889	3.02470223134839	-0.0721573978685463	0.0127448828346305	0.923836752442295	24.6	1.24873096446701	djf	273.1	5.30291262135922	son
02196000	03	STEVENS CREEK NEAR MODOC, SC	-82.33983	-81.76863	33.70353	34.21756	33.7293	-82.18179	142.19	7.2448	1408.38	1408.7	3.32446680355921	3.90583292265572	-0.0168230878908123	0.014697822503637	1.17487499603669	22.45	1.19733333333333	djf	261.5	4.84259259259259	son
02198100	03	BEAVERDAM CREEK NEAR SARDIS, GA	-81.96424	-81.78149	32.89648	33.03231	32.93766	-81.81539	83.45	5.25896	79.49	79.75	3.31921834360027	3.60322032854209	0.0761429488063379	0.0030935926215692	1.08556291136719	25.4	1.36193029490617	jja	280.85	6.15224534501643	son
02202600	03	BLACK CREEK NEAR BLITCHTON, GA	-81.53582	-81.49545	32.32602	32.36632	32.16798	-81.48817	34.93	2.40016	590.47	623.34	3.34136481861739	3.16501875427789	0.181096073310395	0.000456804897604007	0.947223343180927	24.8	1.42939481268012	jja	271.1	5.89347826086957	mam
02212600	03	FALLING CREEK NEAR JULIETTE, GA	-83.80266	-83.60524	33.06664	33.27927	33.09985	-83.72351	159.45	7.25507	187.96	189.79	3.3718726899384	4.01767518138261	-0.0972154298650485	0.00902379998319227	1.19152635666562	24.6	1.28125	djf	274	5.55217831813577	son
02215100	03	TUCSAWHATCHEE CREEK NEAR HAWKINSVILLE, GA	-83.8592	-83.4743	32.14862	32.41013	32.23944	-83.50167	113.08	4.53352	420.29	425.51	3.35439835728953	3.15870158795346	-0.0409869802640485	0.00103330574586555	0.941659651451117	23.6	1.22916666666667	djf	271.2	5.27113702623907	son
02216180	03	TURNPIKE CREEK NEAR MCRAE, GA	-83.1612	-82.8975	31.95326	32.11267	31.99139	-82.92194	83.53	5.30253	129.11	128.08	3.40909787816564	3.18906409308693	0.00706460989789657	0.000534865436369083	0.935456888319936	24.75	1.26598465473146	djf	278.9	5.77432712215321	mam
02221525	03	MURDER CREEK BELOW EATONTON, GA	-83.78412	-83.4446	33.20106	33.54165	33.25236	-83.48128	176.01	7.55177	490.8	493.28	3.35912388774812	3.14240887063655	-0.091209428289791	0.00953851921885697	0.935484660776579	24.5	1.26288659793814	djf	270.65	5.24515503875969	son
02231000	03	ST. MARYS RIVER NR MACCLENNY, FLA.	-82.52479	-82.04021	30.0659	30.78292	30.35885	-82.0815	38.71	2.187	1748.37	1857.37	3.71943189596167	3.40487262149213	0.414359340302195	0.000235918065398254	0.915428139762131	20.9	1.24776119402985	jja	252.65	5.15612244897959	mam
02231342	03	FT DRUM CREEK AT SUNSHINE ST PKY NEAR FT DRUM, FL	-80.97201	-80.75443	27.43185	27.64875	27.56865	-80.79617	21.9	0.94602	111.56	193.78	3.78349486652977	3.49840039698836	0.696951327207111	0	0.924647850836679	21.3	1.35668789808917	jja	259.45	6.10470588235294	djf
02235200	03	BLACKWATER CREEK NEAR CASSIA, FL	-81.63957	-81.59922	28.85805	28.89836	28.87453	-81.48938	26.25	3.67575	297.7	300.67	3.74350171115674	4.12421270362765	0.60137284705323	0	1.1016991634694	20.1	1.32673267326733	jja	249.75	5.70857142857143	mam
02245500	03	SOUTH FORK BLACK CREEK NR PENNEY FARMS, FLA.	-82.04641	-81.72187	29.78234	30.01006	29.97941	-81.85204	41.45	4.14377	348.43	351.1	3.75599041752224	3.8102220807666	0.48273170579318	0.000436628542458846	1.01443871182188	20.1	1.32673267326733	jja	252.95	5.55323819978046	mam
02246000	03	NORTH FORK BLACK CREEK NR MIDDLEBURG, FLA.	-82.05911	-82.01876	30.00456	30.04487	30.1133	-81.90649	34.57	4.00959	451.06	451.22	3.70322108145106	3.28683586584531	0.453676111294111	0.00033269222309749	0.887561340128634	20.75	1.2888198757764	jja	253.6	5.43622722400857	mam
02296500	03	CHARLIE CREEK NEAR GARDNER FL	-81.68377	-81.6424	27.27239	27.31343	27.37504	-81.79647	31.23	1.71633	886.4	892.24	3.68024640657084	3.50799752224504	0.760373922903644	0	0.953196371846661	22.7	1.35928143712575	jja	256.8	5.9102416570771	djf
02297155	03	HORSE CREEK NEAR MYAKKA HEAD FL	-82.11423	-81.98037	27.44338	27.66468	27.48726	-82.02342	35.51	1.24624	93.6	97.92	3.96811635865845	3.86719143052704	0.759624424252745	0	0.974566036121598	24.3	1.41690962099125	jja	270.6	6.91187739463602	mam
02297310	03	HORSE CREEK NEAR ARCADIA FL	-81.99861	-81.95826	27.1503	27.19061	27.19949	-81.98842	25.71	1.18116	528.38	537.07	3.84166187542779	4.04290674880219	0.787050189212887	0	1.0523848479903	22.8	1.44303797468354	jja	260.6	6.64795918367347	mam
02298123	03	PRAIRIE CREEK NEAR FORT OGDEN FL	-81.77494	-81.73459	27.13017	27.17047	27.052	-81.78453	21.75	0.82221	540.65	541.3	3.6844476386037	3.52557760438056	0.824779155032658	0	0.956880908671743	22.6	1.32941176470588	jja	255.7	6.07363420427553	djf
02298608	03	MYAKKA RIVER AT MYAKKA CITY FL	-82.04717	-82.00678	27.33872	27.3793	27.34366	-82.15676	22.79	1.6186	312.34	313.85	3.89631211498973	3.62255742642026	0.773908009142567	0	0.929740051492206	22.65	1.415625	jja	265.9	6.75730622617535	mam
02299950	03	MANATEE RIVER NEAR MYAKKA HEAD FL	-82.25682	-82.04361	27.44212	27.66813	27.47365	-82.2112	33.67	1.61485	174.27	176.8	3.96277207392197	3.52270830937714	0.74985991347247	0	0.888950523437675	22.55	1.40062111801242	jja	268.25	6.7739898989899	mam
02300700	03	BULLFROG CREEK NEAR WIMAUMA FL	-82.39315	-82.22983	27.6878	27.83634	27.79197	-82.35204	25.46	2.88661	73.84	85.85	3.89649691991786	4.35328966461328	0.724640389749514	0	1.11723164526588	22.3	1.41587301587302	jja	265.25	6.54938271604938	mam
02310947	03	WITHLACOOCHEE RIVER NEAR CUMPRESSCO, FLA.	-81.76989	-81.72955	28.15418	28.19449	28.31195	-82.05591	42.23	1.87911	649.56	581.55	3.76080492813142	3.5473271321013	0.677665904780339	0	0.943236142232938	21.05	1.32389937106918	jja	248.9	5.66325369738339	mam
02312200	03	LITTLE WITHLACOOCHEE RIVER AT RERDELL, FLA.	-82.23204	-81.81102	28.37913	28.65341	28.57277	-82.15536	34.11	1.64182	413.48	466.7	3.59314579055441	3.78023446954141	0.636134618488208	0	1.05206821261715	21.85	1.30059523809524	jja	255.6	5.99296600234467	mam
02314500	03	SUWANNEE RIVER AT US 441, AT FARGO, GA	-82.89071	-82.09313	30.63926	31.2744	30.68056	-82.56056	42.05	1.56449	3322.15	2808.45	3.65192470910335	3.477918275154	0.269695205815501	0.000249650358300743	0.952352129956131	22.3	1.24929971988796	jja	259.35	5.28207739307536	mam
02315500	03	SUWANNEE RIVER AT WHITE SPRINGS, FLA.	-82.82532	-82.78497	30.44609	30.4864	30.32578	-82.73818	39.99	2.02123	6136.26	5915.63	3.66727857631759	3.7085363449692	0.277035735591472	0.000242632646334549	1.01125024123284	21.05	1.26047904191617	jja	249.65	5.01809045226131	mam
02324400	03	FENHOLLOWAY RIVER NEAR FOLEY, FLA.	-83.5187	-83.47834	30.1375	30.1778	30.09827	-83.47181	31.14	0.92155	176.27	210.24	3.85167282683094	3.81653318275154	0.3285884083575	0.000197252889221711	0.990876783761431	21.3	1.26409495548961	jja	269.3	5.5987525987526	mam
02327100	03	SOPCHOPPY RIVER NR SOPCHOPPY, FLA.	-84.48588	-84.44554	30.17402	30.21432	30.12937	-84.49435	25.14	1.56064	271.12	299.93	4.16839972621492	3.26890376454483	0.246853688444454	0.000100820488299569	0.784210723359089	22.75	1.45367412140575	jja	267.55	5.91270718232044	mam
02342933	03	SOUTH FORK COWIKEE CREEK NEAR BATESVILLE AL	-85.54628	-85.2676	31.90685	32.12733	32.01766	-85.29577	127.7	7.99022	290.1	290.04	3.81460369609856	3.27510633812457	-0.066124138832765	0.00279627125553728	0.858570535511784	23.1	1.21899736147757	mam	275.8	5.46679881070367	son
02349900	03	TURKEY CREEK AT BYROMVILLE, GA	-83.94683	-83.73826	32.15815	32.33212	32.19556	-83.90222	116.19	3.41104	122.87	124.29	3.39147707049966	3.15703091033539	-0.0312076865417968	0.00108174697292484	0.930871960714825	23.85	1.21065989847716	djf	272.5	5.22531160115053	son
02350900	03	KINCHAFOONEE CREEK NEAR DAWSON, GA	-84.73286	-84.2032	31.73938	32.41445	31.76444	-84.25333	139.77	6.74759	1365.12	1365.59	3.63582067077344	3.15648425735797	-0.050833314877925	0.00176771774649309	0.868162800968536	22.1	1.23809523809524	djf	269.05	5.29105211406096	son
02361000	03	CHOCTAWHATCHEE RIVER NEAR NEWTON, AL.	-85.72658	-85.24547	31.28802	31.90205	31.34295	-85.61049	117.14	8.27039	1781.61	1779.3	3.9580424366872	3.29058316221766	-0.0359430925396891	0.00151244228474588	0.831366316772442	21.4	1.22285714285714	djf	262.95	5.03735632183908	son
02363000	03	PEA RIVER NEAR ARITON AL	-85.88144	-85.39805	31.57077	32.16829	31.59489	-85.783	135.39	7.57689	1292.51	1292.62	3.96039698836413	4.17131125256673	-0.0564163038164559	0.00265565644799469	1.05325583895308	22.85	1.1994750656168	mam	269.8	5.11469194312796	son
02369800	03	BLACKWATER RIVER NEAR BRADLEY AL	-86.80496	-86.53523	30.98376	31.17424	31.02768	-86.70996	72.29	4.2203	227.51	231.14	4.61982477754962	3.71741600273785	0.0380728503805569	0.000872352643815215	0.804666016945687	21	1.25	djf	262.3	4.98195631528965	son
02371500	03	CONECUH RIVER AT BRANTLEY AL	-86.28571	-85.61799	31.50356	32.17255	31.5735	-86.25162	125.86	7.42604	1292.79	1257.42	3.96998357289528	3.14758301163587	-0.0453165947929238	0.0040171402581935	0.792845349065351	22.4	1.18832891246684	djf	264.55	4.99150943396226	son
02372250	03	PATSALIGA CREEK NEAR BRANTLEY AL	-86.45638	-85.98643	31.5499	32.0984	31.59627	-86.40552	122.94	7.29973	1145.22	1145.56	3.98311704312115	3.14445998631075	-0.0568992099341427	0.00347599914354461	0.789447046689535	22.65	1.21774193548387	djf	263.65	4.99337121212121	son
02374500	03	MURDER CREEK NEAR EVERGREEN AL	-87.18237	-86.89418	31.38291	31.75294	31.4185	-86.98664	109.86	7.40892	445.72	458.23	4.41962354551677	4.34898694045174	-0.0268788548892592	0.0030425564536237	0.984017506392218	21.2	1.17777777777778	djf	262.95	4.82034830430797	son
02381600	03	FAUSETT CREEK NEAR TALKING ROCK, GA	-84.49016	-84.39721	34.54601	34.61776	34.57037	-84.46882	512.02	35.2973	10.32	10.33	4.27154962354552	3.0142465982204	-0.110113878697568	0.0166377865167783	0.705656462845556	21.85	1.16844919786096	djf	259.2	4.58761061946903	son
02384540	03	MILL CREEK NEAR CRANDALL, GA	-84.7524	-84.61779	34.83306	34.91924	34.87202	-84.72133	499.46	93.55977	21.37	22.13	4.92782751540041	2.78570169746749	-0.114014018888474	0.0316827871052048	0.565300162954493	19.95	1.21646341463415	djf	255.4	4.51236749116608	son
02395120	03	TWO RUN CREEK NEAR KINGSTON, GA	-84.91455	-84.87207	34.21856	34.26002	34.24278	-84.88972	250.6	9.60933	84.01	85.27	3.75370704996578	2.94694247775496	-0.103527325408786	0.0124894104226604	0.785075243893055	23.1	1.21578947368421	djf	266.25	4.78436657681941	son
02408540	03	HATCHET CREEK BELOW ROCKFORD AL	-86.31875	-85.92793	32.84499	33.33949	32.91679	-86.27025	242.26	15.57552	682.41	683.86	4.06555099247091	3.13598941820671	-0.122945784100051	0.0106950269118165	0.771356557577145	21.8	1.18801089918256	djf	255.55	4.65059144676979	son
02415000	03	HILLABEE CREEK NEAR HACKNEYVILLE AL	-86.02609	-85.71582	33.03604	33.34269	33.06679	-85.87913	270.56	12.25237	491.38	491.75	4.05513073237509	3.00059567419576	-0.129686963311484	0.0124691410953683	0.739950416453852	21.25	1.17079889807163	djf	254.1	4.56193895870736	son
02422500	03	MULBERRY CREEK AT JONES AL	-86.99123	-86.60178	32.5593	33.00695	32.58291	-86.9036	144.84	11.05647	527.55	599.95	3.99807392197125	3.08067708418891	-0.122887203347986	0.00718039110550494	0.770540301233345	22.65	1.1796875	djf	263.05	4.86679000925069	son
02427250	03	PINE BARREN CREEK NEAR SNOW HILL, AL.	-87.14219	-86.71677	31.70669	32.08276	31.99626	-87.06832	102.61	6.93052	675.24	680.64	4.04341546885695	3.97158069164265	-0.0847024819050709	0.00318107874320982	0.982234134046432	22.35	1.1520618556701	djf	266.05	4.93599257884972	son
02430085	03	RED BUD CREEK NR MOORES MILL, MS	-88.30716	-88.26576	34.44551	34.48634	34.46667	-88.28361	150.01	6.72984	40.56	40.73	4.23267077344285	2.94719626283368	-0.16529164959451	0.0126767241295668	0.696297071183836	22.85	1.24863387978142	djf	264.65	4.81619654231119	son
02430615	03	MUD CREEK NR FAIRVIEW, MS	-88.39389	-88.28199	34.35364	34.46326	34.3925	-88.355	132.82	6.11799	28.71	32.52	4.24121971252567	2.95050996577686	-0.160447039672075	0.0105389852401918	0.695674868496691	22.5	1.2396694214876	djf	264.45	4.81255686988171	son
02450250	03	SIPSEY FORK NEAR GRAYSON AL	-87.56864	-87.29328	34.24068	34.45567	34.28538	-87.39891	254.92	12.27321	231.83	242.69	4.40954551676934	3.06388258726899	-0.174753638268905	0.0142864105715527	0.694829563640326	21.1	1.24117647058824	djf	256.3	4.80863039399625	son
02464000	03	NORTH RIVER NEAR SAMANTHA AL	-87.74704	-87.46325	33.44605	33.86256	33.47928	-87.59723	143.69	9.66599	578.94	581.79	4.27230937713895	3.00240327173169	-0.149259843649326	0.011217518412828	0.702758861003255	22.2	1.18085106382979	djf	257.35	4.71769019248396	son
02464146	03	TURKEY CREEK NEAR TUSCALOOSA	-87.54012	-87.4473	33.36408	33.45816	33.41345	-87.51056	140.81	9.04939	15.82	15.84	4.15972621492129	3.03012813141684	-0.155161494061721	0.0100912238208696	0.728444127055169	23.85	1.23575129533679	djf	264.65	5.08453410182517	son
02464360	03	BINION CREEK BELOW GIN CREEK NEAR SAMANTHA AL	-87.76316	-87.59418	33.35095	33.57439	33.42484	-87.64251	114.12	8.63619	148.62	148.99	4.09805886379192	3.16212818617385	-0.155678916352798	0.00953657630597214	0.771616097102115	23.65	1.24146981627297	djf	264.1	4.96428571428571	son
02465493	03	ELLIOTTS CREEK AT MOUNDVILLE AL	-87.6629	-87.40555	32.9054	33.03094	32.99735	-87.62223	101.5	9.53966	83.42	86.62	4.04349212867899	3.58987017111567	-0.139368466372467	0.0073106547528566	0.887814309233857	23.7	1.25065963060686	djf	266.2	5.14893617021277	son
02469800	03	SATILPA CREEK NEAR COFFEEVILLE AL	-88.04489	-88.00348	31.72018	31.76154	31.74432	-88.02251	78.13	9.86442	422.68	422.88	4.09600821355236	3.2828758110883	-0.0991940795603835	0.00317164939805503	0.801481745135746	22.75	1.21010638297872	djf	266.8	5.09646609360076	son
02472000	03	LEAF RIVER NR COLLINS, MS	-89.71753	-89.18492	31.66724	32.38003	31.70694	-89.40694	123.24	6.76654	1927.13	1927.67	4.15840246406571	3.16766180698152	-0.163583171916359	0.00601472225980532	0.761749694589318	23.2	1.21148825065274	djf	259.85	4.86155285313377	son
02472500	03	BOUIE CREEK NR HATTIESBURG, MS	-89.87305	-89.38101	31.35612	31.88471	31.42583	-89.41472	113.73	6.76541	789.94	789.45	4.25615742642026	3.61845958932238	-0.126695081009657	0.00245438987135601	0.850170523970908	22.45	1.15721649484536	djf	260.3	4.70280036133695	son
02479155	03	CYPRESS CREEK NR JANICE, MS	-89.0054	-88.96507	31.00983	31.05012	31.02528	-89.01667	70.21	6.65609	137.28	138.17	4.42888843258042	3.20047759069131	-0.0405204366434495	0.00180261323282549	0.722636760760893	21.95	1.20604395604396	djf	262.75	5.02390057361377	son
02479300	03	RED CREEK AT VESTRY, MS	-89.14383	-89.1035	30.91653	30.95682	30.73611	-88.78111	65.19	5.84957	1144.2	1153.42	4.61856810403833	3.21301212867899	0.0100866497787576	0.000741286548598284	0.695672783490976	20.5	1.19883040935673	djf	247.9	4.7444976076555	mam
02479560	03	ESCATAWPA RIVER NEAR AGRICOLA MS	-88.59359	-88.1938	30.78001	31.58958	30.80908	-88.45863	64.68	6.14661	1454.33	1455.83	4.64999041752225	3.18509713894593	-0.0243605221446677	0.000888184177073956	0.684968538202518	20.1	1.29260450160772	djf	247.05	4.88241106719368	son
02481000	03	BILOXI RIVER AT WORTHAM, MS	-89.28994	-89.24961	30.67661	30.7169	30.55861	-89.12194	51.66	5.61014	249.23	250.49	4.79164271047228	3.21561022587269	0.0456993299055388	0.000365397773616224	0.671087228362181	20.25	1.28164556962025	djf	251.25	4.94586614173228	mam
02481510	03	WOLF RIVER NR LANDON, MS	-89.33836	-89.29802	30.80402	30.8443	30.48361	-89.27444	64	5.13464	800.66	801.48	4.62082546201232	3.21608687200548	0.0237431959698631	0.000762254507685202	0.695998344547925	20.4	1.23262839879154	djf	246.6	4.71060171919771	mam
03010655	05	Oswayo Creek at Shinglehouse, PA	-77.9776	-77.93718	41.95271	41.99302	41.96173	-78.19807	635.06	32.95227	254.44	255.12	3.28458726899384	2.26130887063655	0.205555259955749	0.207261759338099	0.688460584373285	17.2	1.16610169491525	jja	207.55	2.95234708392603	jja
03011800	05	Kinzua Creek near Guffey, PA	-78.74346	-78.51613	41.70073	41.85596	41.76645	-78.71864	628.71	19.77674	100.1	101.16	3.5894250513347	2.25324978781656	0.164345763980717	0.210192690903197	0.627746715864344	14.65	1.18145161290323	jja	199.35	2.98204936424832	jja
03015500	05	Brokenstraw Creek at Youngsville, PA	-79.73909	-79.29281	41.7408	42.11991	41.85256	-79.31727	492.56	22.04748	784.85	831.39	3.59908829568788	2.26129915126626	0.181003525363463	0.192038519147369	0.628297770292423	15.4	1.1622641509434	jja	197.85	2.93545994065282	jja
03021350	05	French Creek near Wattsburg, PA	-79.72657	-79.68615	42.11658	42.15689	42.01533	-79.78255	485.4	20.02559	239.67	249	3.68573579739904	2.26540563997262	0.168834030505871	0.208263538884948	0.61464135372136	15.45	1.24096385542169	jja	200.1	3.06666666666667	jja
03026500	05	Sevenmile Run near Rasselas, PA	-78.66562	-78.55427	41.60254	41.7113	41.63117	-78.57669	577.23	15.82974	20.31	20.33	3.53956194387406	2.2624765229295	0.156580794306811	0.209814940150446	0.639196759035446	15.95	1.14336917562724	jja	201.75	2.98005908419498	jja
03028000	05	West Branch Clarion River at Wilcox, PA	-78.82858	-78.57911	41.53811	41.74803	41.57534	-78.69225	569.02	18.29113	161.11	166.22	3.46432306639288	2.26305470225873	0.157303344531732	0.203474312123818	0.653245860414243	16.4	1.11945392491468	jja	203.6	2.99632082413539	jja
03049000	05	Buffalo Creek near Freeport, PA	-79.62917	-79.58876	40.90397	40.94428	40.7159	-79.69949	365.27	16.00521	357.15	356.44	3.29245448323066	2.37935804243669	0.138944311915125	0.139333377128464	0.722669988166999	17.9	1.11180124223602	jja	216.65	3.16739766081871	son
03049800	05	Little Pine Creek near Etna, PA	-79.96772	-79.87037	40.48948	40.59788	40.52035	-79.93811	296.6	21.30523	14.89	16	3.02702395619439	2.43280097193703	0.128476117724567	0.116341909362209	0.803693993553846	18.65	1.1441717791411	jja	222.35	3.39206712433257	jja
03050000	05	TYGART VALLEY RIVER NEAR DAILEY, WV	-80.13039	-80.08999	38.56396	38.60426	38.80927	-79.88173	998.82	65.76346	487.29	489.49	3.87312525667351	2.48064970568104	0.0795221772161191	0.158964457158934	0.640477532041291	14.7	1.14396887159533	jja	194.6	2.88296296296296	son
03066000	05	BLACKWATER R AT DAVIS, WV	-79.51368	-79.27021	38.9765	39.23489	39.12705	-79.46838	1072.01	68.69899	222.79	225.23	4.16037782340862	2.45000676249144	0.0537016360903952	0.222508814947308	0.588890448532422	13.6	1.10121457489879	jja	195	2.87187039764359	son
03069500	05	CHEAT RIVER NEAR PARSONS, WV	-80.03504	-79.27021	38.37259	39.23489	39.12288	-79.68117	961.46	63.79304	1856.85	1853.2	4.07351813826146	2.44632761122519	0.0685163705935231	0.194644630432116	0.600544180286688	13.15	1.16371681415929	jja	190.2	2.83457526080477	son
03070500	05	BIG SANDY CREEK AT ROCKVILLE, WV	-79.79419	-79.45072	39.55084	39.87871	39.61564	-79.70477	599.73	30.19392	517.38	518.44	3.700212183436	2.43485184120465	0.0800223526604417	0.144725592442485	0.658030329207678	15.25	1.10108303249097	jja	203.35	2.9816715542522	son
03076600	05	BEAR CREEK AT FRIENDSVILLE, MD	-79.42489	-79.21219	39.52959	39.71812	39.65614	-79.39411	795.46	21.46688	127.4	128.33	3.65368651608487	2.43922698151951	0.0719940585445489	0.189395500517419	0.667607078708349	16.1	1.0952380952381	jja	206.8	2.99060014461316	son
03078000	05	CASSELMAN RIVER AT GRANTSVILLE, MD	-79.30559	-79.08198	39.52033	39.77894	39.70219	-79.13639	767.06	30.57341	161.48	165.17	3.50921697467488	2.43736324435318	0.0904527772272066	0.194625437344426	0.694560428136251	17.15	1.07523510971787	jja	214.45	3.05049786628734	son
03140000	05	Mill Creek near Coshocton OH	-81.8912	-81.74789	40.32398	40.50294	40.36285	-81.86236	287.7	15.82284	70.35	71.31	2.91307871321013	2.4426807118412	0.180956093452007	0.0894584784615066	0.8385220422518	21.55	1.24207492795389	jja	241.2	3.78056426332288	son
03144000	05	Wakatomika Creek near Frazeysburg OH	-82.3674	-82.06556	40.0692	40.36346	40.13257	-82.14792	292.28	13.11071	363.41	365.1	2.99462286105407	2.45251544147844	0.159603524796088	0.0936024048579887	0.818973057801069	20.35	1.22222222222222	jja	239.65	3.68125960061444	son
03159540	05	Shade River near Chester OH	-82.11937	-82.07898	39.24358	39.28389	39.06369	-81.8818	232.8	10.08158	400.85	400.87	3.14572073921971	2.51591960301164	0.106093067201104	0.0789834761345878	0.799791148541591	20.8	1.16526610644258	jja	240.1	3.67125382262997	son
03161000	05	SOUTH FORK NEW RIVER NEAR JEFFERSON, NC	-81.75802	-81.33875	36.09735	36.43048	36.39333	-81.40694	834.21	57.20214	527.86	533.63	4.04719917864476	2.69845252566735	0.10387943490618	0.0874425287647908	0.666745669426368	19.45	1.19325153374233	mam	232.65	3.8775	son
03164000	05	NEW RIVER NEAR GALAX, VA	-81.76205	-80.89371	36.09735	36.78891	36.64735	-80.97897	766.6	45.80251	2952.74	2963.7	3.7405106091718	2.66829385352498	0.101946051614827	0.0839958967122095	0.7133501632056	19.7	1.17261904761905	mam	235.4	3.96630160067397	son
03165000	05	CHESTNUT CREEK AT GALAX, VA	-80.97135	-80.79946	36.51828	36.71787	36.64596	-80.91924	707.63	45.4663	102	117.5	3.67150171115674	2.66542825462012	0.0918396343458606	0.0758216158494753	0.725977669170241	21.3	1.22766570605187	mam	252.2	4.33333333333333	son
03170000	05	LITTLE RIVER AT GRAYSONTOWN, VA	-80.65396	-80.08477	36.7776	37.10738	37.03763	-80.55672	713.74	32.96335	794.64	800.06	3.32212594113621	2.8167734017796	0.130431484041595	0.0945585836238721	0.847882787013256	20.55	1.19476744186047	mam	247.65	4.25150214592275	son
03173000	05	WALKER CREEK AT BANE, VA	-81.29372	-80.6341	37.00222	37.32071	37.26818	-80.70951	750.95	46.98351	773.32	775.84	3.0228514715948	2.63302963723477	0.137115353774068	0.0942000993572573	0.871041684309297	19.25	1.18827160493827	mam	234.9	3.86666666666667	son
03180500	05	GREENBRIER RIVER AT DURBIN, WV	-79.8694	-79.829	38.61312	38.65343	38.54373	-79.83312	1057.03	44.26244	345.06	346.48	3.78282272416153	2.48605563312799	0.0351025247833449	0.195303023284764	0.657195912789974	14.8	1.16078431372549	jja	204.05	3.02744807121662	son
03182500	05	GREENBRIER RIVER AT BUCKEYE, WV	-79.8694	-79.829	38.61312	38.65343	38.18595	-80.13062	934.51	59.7077	1364.97	1364.86	3.55233127994524	2.51935242984257	0.0375230123779968	0.170253081143655	0.709211002944919	17.7	1.16447368421053	mam	212.8	3.21936459909228	son
03186500	05	WILLIAMS RIVER AT DYER, WV	-80.51398	-80.10858	38.18155	38.42953	38.379	-80.48397	1057.61	61.17799	329.68	332.11	4.14293497604381	2.51498488706366	0.0469846565828001	0.1907316712122	0.607053912650417	15.2	1.11764705882353	jja	206.8	2.99710144927536	son
03187500	05	CRANBERRY RIVER NEAR RICHWOOD, WV	-80.25097	-80.21058	38.18145	38.22176	38.29539	-80.52648	1061.95	60.18061	207.41	207.99	4.13442299794661	2.52101201916496	0.0698880177886653	0.182826213927838	0.60976151216676	16.2	1.12110726643599	jja	213.85	3.13333333333333	son
03213700	05	TUG FORK AT WILLIAMSON, WV	-82.33767	-81.28671	37.09749	37.71299	37.67316	-82.28014	611.92	37.9826	2425.06	2431.37	3.47541273100616	2.61238295687885	0.104807159892182	0.0730954797740182	0.751675602029157	18.1	1.15286624203822	jja	222.3	3.38613861386139	son
03237280	05	Upper Twin Creek at McGaw OH	-83.30218	-83.16443	38.6137	38.73351	38.64369	-83.21574	248.51	31.52585	32.95	33.22	3.52835318275154	2.55484724161533	0.046001063387718	0.0847306381238598	0.724090562731866	19.05	1.17956656346749	mam	238.85	3.69736842105263	son
03237500	05	Ohio Brush Creek near West Union OH	-83.79061	-83.24551	38.77128	39.23447	38.80368	-83.42102	272.36	14.22302	1003.21	1001.42	3.2265325119781	2.55285919233402	0.0606166620277512	0.0787104016916548	0.791208265485269	20.8	1.13972602739726	mam	239.5	3.73634945397816	son
03238500	05	White Oak Creek near Georgetown OH	-84.00284	-83.62303	38.82938	39.20911	38.85813	-83.92854	285.37	7.5191	568.5	564.16	3.25269952087611	2.55609259411362	0.0735740007821369	0.0747385312973334	0.785837295362942	20.9	1.15789473684211	mam	239.6	3.77025963808025	son
03241500	05	Massies Creek at Wilberforce OH	-83.92319	-83.58115	39.68252	39.82894	39.72284	-83.88271	319.84	3.27837	170.91	173.48	3.07015605749487	2.51180187542779	0.161117606586146	0.0779467519548554	0.818134918352433	20.7	1.18965517241379	jja	248.25	4.05968928863451	son
03280700	05	CUTSHIN CREEK AT WOOTON, KY	-83.34533	-83.14426	36.98309	37.1892	37.16509	-83.30796	540.37	28.95669	158.22	158.56	3.9905735797399	2.73069660506502	0.00897812703913208	0.0584460847843343	0.684286744875158	18.85	1.1671826625387	mam	232.5	3.5824345146379	son
03281100	05	GOOSE CREEK AT MANCHESTER, KY	-83.90771	-83.55796	36.91472	37.18255	37.15203	-83.7602	403.43	22.48228	422.72	425.25	3.81621492128679	2.68704707734428	0.0201189623228695	0.0416713149875616	0.70411314162522	19.55	1.19571865443425	mam	240.5	3.94909688013136	son
03281500	05	SOUTH FORK KENTUCKY RIVER AT BOONEVILLE, KY	-83.95825	-83.42331	36.87482	37.53484	37.47981	-83.67519	376.49	21.8686	1838.22	1836.71	3.80124161533196	2.6716241889117	0.0417899627585112	0.044067880842997	0.702829354002637	19.5	1.1854103343465	mam	236.5	3.86753883892069	son
03285000	05	DIX RIVER NEAR DANVILLE, KY	-84.91224	-84.31312	37.31307	37.67267	37.64202	-84.66078	323.6	12.08007	822.34	823.29	3.53352087611225	2.70664965092402	-0.0166956408575432	0.0446468108120254	0.76599226262447	21.55	1.21067415730337	mam	245.3	4.1541066892464	son
03291780	05	INDIAN-KENTUCK CREEK NR CANAAN, IND.	-85.34131	-85.20733	38.84217	39.01791	38.87811	-85.25718	249.83	14.47984	71.41	71.52	3.62401642710472	2.58425004791239	0.0791105878293909	0.0673686532615331	0.713090047987719	21.15	1.29754601226994	mam	251.7	4.37358818418766	son
03300400	05	BEECH FORK AT MAUD, KY	-85.31679	-84.87056	37.53159	38.0113	37.83284	-85.29607	254.43	9.33197	1128.58	1128.54	3.45790691307324	2.70082891170431	0.0118701193031353	0.0537664078517784	0.781058883191258	21.45	1.20845070422535	mam	248.5	4.14166666666667	son
03338780	05	NORTH FORK VERMILION RIVER NEAR BISMARCK, IL	-87.80858	-87.37416	40.21032	40.58935	40.26531	-87.6428	213.25	3.19469	691.56	691.76	2.91593976728268	2.48124194387406	0.329598570052117	0.0725503193755769	0.850923593043312	22.15	1.23743016759777	jja	259.35	4.56200527704485	son
03340800	05	BIG RACCOON CREEK NEAR FINCASTLE IND	-86.96823	-86.92621	39.77819	39.81994	39.81255	-86.9539	268.15	4.37041	357.65	363.41	3.11718001368925	2.51269378507871	0.193085647558957	0.0732286680426859	0.806079140134381	22.35	1.18253968253968	jja	252.7	4.19071310116086	son
03346000	05	NORTH FORK EMBARRAS RIVER NEAR OBLONG, IL	-88.05053	-88.00478	39.0371	39.07873	39.01004	-87.94559	173.5	2.57944	814.69	828.74	3.13314305270363	2.60218880219028	0.141508236825792	0.0621069652969445	0.830536224621094	22.75	1.26388888888889	jja	255.35	4.54764024933215	son
03357350	05	PLUM CREEK NEAR BAINBRIDGE, IND.	-86.79144	-86.67811	39.70436	39.82569	39.76171	-86.72945	258.64	5.84999	7.75	26.11	3.22015605749487	2.52992321697467	0.192941732360072	0.0702381984794612	0.785652363364911	22.6	1.16795865633075	jja	253.55	4.18399339933993	son
03364500	05	CLIFTY CREEK AT HARTSVILLE, IN	-85.36306	-85.32267	39.41813	39.45843	39.27477	-85.70165	274.58	3.79613	237.09	242.41	3.34864476386037	2.53998793976728	0.144662519373104	0.0804170575814994	0.758512209828774	22.85	1.1839378238342	mam	248.25	4.03986981285598	son
03366500	05	MUSCATATUCK RIVER NEAR DEPUTY, IN	-85.56022	-85.51983	38.64799	38.68828	38.80422	-85.67386	240.19	8.50477	755.22	762.69	3.61569609856263	2.59112160164271	0.103580453208449	0.059067129172147	0.71663146763711	21.35	1.28614457831325	mam	247.45	4.27006039689387	son
03368000	05	BRUSH CREEK NEAR NEBRASKA, IN	-85.5249	-85.35902	39.03574	39.15943	39.07033	-85.48608	264.12	4.26263	29.72	32.49	3.50896235455168	2.56677771389459	0.109334032224163	0.0670858663666364	0.731491949625814	21.45	1.1949860724234	mam	250.6	4.11156685808039	son
03384450	05	LUSK CREEK NEAR EDDYVILLE, IL	-88.60997	-88.42951	37.43725	37.61217	37.47227	-88.54727	166.37	16.36598	111.13	112.28	3.66948117727584	2.73193681040383	-0.0741546672622545	0.0496725306242436	0.744502200289791	23.5	1.24338624338624	mam	265.05	4.86330275229358	jja
03439000	06	FRENCH BROAD RIVER AT ROSMAN, NC	-83.00859	-82.79776	35.08204	35.32933	35.14333	-82.82472	863.18	63.23118	178.67	178.18	5.56067488021903	2.71938744695414	0.0210712593748749	0.0374660918206049	0.489039101463711	18.9	1.20382165605096	djf	231.5	4.12288512911843	son
03450000	06	BEETREE CREEK NEAR SWANNANOA, NC	-82.44113	-82.35616	35.63098	35.7207	35.65306	-82.40528	891.9	105.59692	14.08	14.13	4.09460643394935	2.70980800821355	0.064045328213259	0.0842690506200039	0.661799382169161	17.55	1.31954887218045	son	240.55	4.26507092198582	son
03455500	06	W F PIGEON R ABOVE LAKE LOGAN NR HAZELWOOD, NC	-83.01062	-82.85152	35.27155	35.4189	35.39611	-82.9375	1326.82	91.67733	72.95	71.47	5.80058042436687	3.42376536618754	0.0638700322383783	0.0774314166204897	0.590245305763732	17.8	1.28519855595668	son	230.7	4.01217391304348	son
03456500	06	EAST FORK PIGEON RIVER NEAR CANTON, NC	-82.90783	-82.725	35.29391	35.50034	35.46167	-82.86972	1162.13	99.95219	133.43	137.33	4.7873839835729	2.76630547570157	0.0557590848169392	0.0638736766495558	0.577832378851099	17.3	1.26277372262774	djf	233.25	4.19137466307278	son
03460000	06	CATALOOCHEE CREEK NEAR CATALOOCHEE, NC	-83.22325	-83.02225	35.5287	35.70775	35.6675	-83.07361	1254.53	116.23587	127.02	127.62	4.47108008213552	2.6527807118412	0.0256759801789374	0.077253343718732	0.59331988313977	15.15	1.20717131474104	djf	226.45	3.76788685524126	son
03463300	06	SOUTH TOE RIVER NEAR CELO, NC	-82.31137	-82.13797	35.67865	35.86663	35.83151	-82.18429	1025.66	112.34116	112.16	113.16	4.56529911019849	3.05420387405886	0.0379202786522028	0.0849163900758962	0.669004111304784	17.25	1.25912408759124	son	233	3.98290598290598	son
03471500	06	S F HOLSTON RIVER AT RIVERSIDE NR CHILHOWIE, VA	-81.65992	-81.30914	36.6771	36.8402	36.76039	-81.63123	1023.62	69.46205	198.16	198.29	3.41253798767967	2.60360410677618	0.105286957457578	0.0838711696088708	0.762952417284732	19.4	1.16167664670659	mam	238.25	3.80591054313099	son
03473000	06	S F HOLSTON RIVER NEAR DAMASCUS, VA	-81.86959	-81.8227	36.60856	36.66368	36.65178	-81.84401	916.29	56.64293	784.81	784.35	3.49595208761123	2.5874022587269	0.090562164899597	0.0832667330515825	0.740113764114789	17.9	1.15112540192926	mam	231.8	3.75080906148867	son
03479000	06	WATAUGA RIVER NEAR SUGAR GROVE, NC	-81.86102	-81.67484	36.08835	36.36861	36.23917	-81.82222	1040.03	82.19102	235.6	237.77	3.973234770705	2.66377174537988	0.109819057850403	0.0904171237520879	0.670428982707011	18.25	1.17363344051447	jja	226.6	3.64308681672026	son
03488000	06	N F HOLSTON RIVER NEAR SALTVILLE, VA	-81.8059	-81.24332	36.82955	37.10736	36.89678	-81.74623	812.91	54.05912	578.21	573.75	3.274212183436	2.61184466803559	0.0988846609521179	0.0815490515140822	0.797701713178126	18.3	1.1656050955414	mam	224.95	3.4848954298993	son
03498500	06	LITTLE RIVER NEAR MARYVILLE, TN	-83.85038	-83.81	35.80663	35.84693	35.78562	-83.8846	680.92	77.71156	696.76	700.35	4.33051745379877	2.64746369609856	-0.0310991119176905	0.0343707789266315	0.611350427366638	16.4	1.24714828897338	djf	217.1	3.66722972972973	son
03500000	06	LITTLE TENNESSEE RIVER NEAR PRENTISS, NC	-83.5064	-83.26096	34.88326	35.17717	35.15	-83.37972	808.87	67.89742	361.14	362.46	5.1950417522245	2.82262596851472	-0.0811899160520957	0.0292489179120406	0.543330757121649	19.75	1.27009646302251	djf	233	4.12754650132861	son
03500240	06	CARTOOGECHAYE CREEK NEAR FRANKLIN, NC	-83.60118	-83.36033	35.04019	35.21785	35.15889	-83.39417	967.11	82.16983	145.86	148.94	5.0380848733744	3.06516536618754	-0.087909722614876	0.029394718558517	0.608398914116459	19.05	1.2742474916388	djf	237.4	4.17223198594025	son
03504000	06	NANTAHALA RIVER NEAR RAINBOW SPRINGS, NC	-83.67614	-83.45115	34.97665	35.16149	35.1275	-83.61861	1039.71	86.43459	134.52	134.56	5.6031485284052	2.69890116358658	-0.0776271198044347	0.0589912291417263	0.481675820282915	19.05	1.26578073089701	djf	237	4.15425065731814	son
03574500	06	PAINT ROCK RIVER NEAR WOODVILLE AL	-86.01892	-85.97773	35.05262	35.0942	34.62425	-86.30637	337.61	47.69583	813.8	859.22	4.29078028747433	2.85762328542094	-0.173452400201009	0.0200681785915394	0.665991519948698	21.15	1.27409638554217	djf	237.3	4.29891304347826	son
03592718	06	LITTLE YELLOW CREEK EAST NR BURNSVILLE, MS	-88.32293	-88.19173	34.72506	34.87619	34.83556	-88.28806	173.22	6.67758	66.99	67	4.27535797399042	3.7611187816564	-0.138466454495008	0.0149109120314144	0.879720202270209	21.2	1.25073746312684	mam	257.85	4.67967332123412	son
03604000	06	BUFFALO RIVER NEAR FLAT WOODS, TN	-87.3078	-87.26744	35.42355	35.46384	35.49591	-87.8328	269.53	10.29605	1163.03	1163.35	4.35018480492813	2.96437063655031	-0.134235660399537	0.0255990760932844	0.681435564114909	21.9	1.25501432664756	mam	249	4.62395543175488	son
04015330	04	KNIFE RIVER NEAR TWO HARBORS, MN	-91.90737	-91.86696	47.02853	47.06881	46.94688	-91.7924	337.69	19.16862	224.35	225.84	2.23980013689254	1.95845498973306	0.590786400549574	0.196079390089318	0.874388280219585	20.8	1.37748344370861	jja	250.85	4.47147950089127	djf
04024430	04	NEMADJI RIVER NEAR SOUTH SUPERIOR, WI	-92.6757	-92.01202	46.29646	46.6827	46.63327	-92.09408	343.48	6.93316	1091.25	1094.55	2.23315400410678	2.01156272416153	0.68295473815276	0.1608667587394	0.900772056231798	22.25	1.33233532934132	jja	261.25	5.10752688172043	djf
04027000	04	BAD RIVER NEAR ODANAH, WI	-90.3185	-90.2781	46.32965	46.36993	46.48661	-90.6963	425.75	9.36771	1619.85	1547.15	2.42342231348392	2.05268680355921	0.459768532097639	0.235000084730923	0.847019849630856	18.95	1.19936708860759	jja	240.2	3.80364212193191	mam
04040500	04	STURGEON RIVER NEAR SIDNAW, MI	-88.5352	-88.49478	46.47026	46.51055	46.58411	-88.57597	497.28	8.10212	419.83	421.65	2.43971800136893	2.2609700752909	0.307721220589675	0.309607600434067	0.926734185681405	16.8	1.22627737226277	jja	217.8	3.37936384794414	mam
04043050	04	TRAP ROCK RIVER NEAR LAKE LINDEN, MI	-88.48193	-88.22079	47.20268	47.37091	47.22854	-88.38539	239.41	16.9632	76.62	76.66	2.0726160164271	2.18737953456537	0.219573737736963	0.299401075000363	1.0553713361417	19	1.29251700680272	son	236.9	3.89638157894737	mam
04045500	04	TAHQUAMENON RIVER NEAR PARADISE, MI	-85.89389	-84.86208	46.13627	46.61034	46.57502	-85.26955	236.77	6.40846	1909.59	1967.44	2.56409993155373	2.79321760438056	0.143003212563258	0.300079815277018	1.08935598414372	15.95	1.17279411764706	son	214.05	3.64340425531915	mam
04056500	04	MANISTIQUE RIVER NEAR MANISTIQUE, MI	-86.79142	-85.57952	45.98563	46.61612	46.03053	-86.16125	232.99	4.97773	2945.89	2984.03	2.3960219028063	2.03515041752225	0.208487829079364	0.277927593878514	0.849387234373197	17.05	1.19230769230769	son	224.4	3.78096040438079	mam
04057510	04	STURGEON RIVER NEAR NAHMA JUNCTION, MI	-86.86852	-86.56372	45.87159	46.36918	45.94302	-86.7057	228.86	4.66219	473.57	491.76	2.35633264887064	2.03594442162902	0.274350841630493	0.253134692886369	0.864030985864762	19.7	1.22360248447205	son	234.3	3.88235294117647	mam
04057800	04	MIDDLE BRANCH ESCANABA RIVER AT HUMBOLDT, MI	-87.87488	-87.83174	46.466	46.50852	46.4991	-87.88652	476.21	6.3961	115.87	121.98	2.49035455167693	2.05002036960986	0.257919993575317	0.334246736484748	0.823184139876562	17.85	1.24390243902439	jja	218.4	3.34969325153374	jja
04059500	04	FORD RIVER NEAR HYDE, MI	-87.67928	-87.63886	45.92191	45.96221	45.75552	-87.20152	314.09	6.07833	1184.37	1188.82	2.18302258726899	2.33493660506502	0.380564370968015	0.235319790957285	1.06958884378108	21.45	1.23631123919308	jja	245.45	4.08063175394846	djf
04063700	04	POPPLE RIVER NEAR FENCE, WI	-88.92771	-88.38707	45.65451	45.85338	45.76357	-88.46318	473.28	5.5832	362.57	371.32	2.30063381245722	2.04343353867214	0.520192757708825	0.211966109984869	0.888204601535273	21.8	1.24928366762178	jja	250.1	4.05348460291734	djf
04074950	04	WOLF RIVER AT LANGLADE, WI	-88.72387	-88.68346	45.36809	45.40838	45.18997	-88.73344	482.31	7.42761	1205.53	1216.29	2.37189596167009	2.31414663928816	0.534512715369945	0.203272983314769	0.975652674773615	20.9	1.2330383480826	jja	250.15	4.09410801963993	djf
04105700	04	AUGUSTA CREEK NEAR AUGUSTA, MI	-85.38954	-85.34914	42.32279	42.36309	42.35337	-85.35389	277.91	6.57315	98.04	100.88	2.80042710472279	2.3253673100616	0.228083218303704	0.154578943663624	0.830361663811915	19.4	1.22397476340694	jja	232.9	3.84640792733278	jja
04115265	04	FISH CREEK NEAR CRYSTAL, MI	-85.06453	-85.02412	43.26617	43.30647	43.24976	-84.98113	254.56	4.35688	95.78	96.12	2.49728542094456	2.2620246954141	0.222395197435615	0.17692366303836	0.905793417301305	22.05	1.27089337175793	jja	245.25	3.96844660194175	jja
04122200	04	WHITE RIVER NEAR WHITEHALL, MI	-85.73961	-85.6992	43.52044	43.56073	43.46418	-86.23257	244.61	6.17213	1048.28	1022.74	2.63890622861054	2.22766402464066	0.176031411122328	0.175430988197981	0.844161873009632	19.25	1.33680555555556	jja	238.4	4.08919382504288	jja
04122500	04	PERE MARQUETTE RIVER AT SCOTTVILLE, MI	-85.76786	-85.72418	43.65549	43.69828	43.94501	-86.27869	270.61	7.82371	1769.19	1800.63	2.61393292265572	2.21167838466804	0.201226998104088	0.184317913063151	0.846111377036028	19.6	1.32881355932203	jja	232.75	3.92495784148398	jja
04124000	04	MANISTEE RIVER NEAR SHERMAN, MI	-85.48879	-85.44837	44.5219	44.5622	44.43639	-85.69868	336.67	9.92703	2243.63	2288.73	2.47448186173854	2.60474535249829	0.243321530728284	0.226973864370005	1.05264273413111	17.3	1.19310344827586	jja	220.75	3.49287974683544	jja
04127918	04	PINE RIVER NEAR RUDYARD, MI	-85.09901	-84.50998	46.13027	46.42434	46.18585	-84.59783	234.05	5.24337	548.29	602.47	2.62297056810404	2.02800488706366	0.149954183696444	0.290254060373262	0.773171041918918	15.25	1.17760617760618	son	209.55	3.46937086092715	mam
04127997	04	STURGEON RIVER AT WOLVERINE, MI	-84.85653	-84.4761	44.99507	45.35945	45.27446	-84.60003	356.97	12.23471	487.16	504.19	2.52362628336756	2.88227039014374	0.189064031666847	0.268061615104673	1.14211458691007	16.75	1.23616236162362	jja	218	3.60628618693135	jja
04161580	04	STONY CREEK NEAR ROMEO, MI	-83.22722	-83.18681	42.84191	42.88222	42.80086	-83.09021	277.3	7.53129	64.31	66.55	2.47857631759069	2.28244283367556	0.237781897599397	0.157673147023086	0.92086849110792	21.8	1.24928366762178	jja	251	4.10466067048242	jja
04185000	04	Tiffin River at Stryker OH	-84.5346	-84.1281	41.46433	42.04831	41.5045	-84.42967	250.64	3.32824	1064	1064.22	2.58798494182067	2.37622570841889	0.225802839513107	0.125203448992686	0.918176017959052	22.45	1.23013698630137	jja	252	4.23529411764706	son
04196800	04	Tymochtee Creek at Crawford OH	-83.51474	-83.47433	40.87005	40.91034	40.92283	-83.34881	276.66	2.52382	608.07	608.08	2.67460506502396	2.4540832991102	0.199795051452418	0.099311648741759	0.917549783780215	21.2	1.23976608187134	jja	245.9	4.00162733930024	son
04197100	04	Honey Creek at Melmore OH	-83.13443	-82.71231	40.87207	41.12733	41.02228	-83.10964	298.46	2.93165	388.21	388.9	2.75852566735113	2.44512399726215	0.194850474617608	0.111863760810241	0.886387981160268	20.2	1.22424242424242	jja	239.1	3.81948881789137	son
04197170	04	Rock Creek at Tiffin OH	-82.92184	-82.88144	41.10542	41.14572	41.11367	-83.16825	275.04	3.32921	95.21	95.97	2.71279808350445	2.41234162902122	0.197257299416675	0.10758495614117	0.889244814676699	20.2	1.17101449275362	jja	242.9	3.82218725413061	son
04213000	04	Conneaut Creek at Conneaut OH	-80.70774	-80.24987	41.63668	41.95774	41.927	-80.60397	322.72	10.20101	455.3	466.13	3.2589363449692	2.30925004791239	0.146118109580721	0.162227338465539	0.708590105319843	17	1.18466898954704	jja	209.8	3.16440422322775	jja
04213075	04	Brandy Run near Girard, PA	-80.31916	-80.19012	41.96611	42.03863	41.992	-80.29117	358.17	13.85748	11.65	11.94	3.25756468172485	2.30816082135524	0.152360047508136	0.160655070848624	0.708554103101673	16.65	1.332	jja	210.3	3.29623824451411	jja
04216418	04	TONAWANDA CREEK AT ATTICA NY	-78.39898	-78.1847	42.60098	42.88982	42.86395	-78.28363	533.55	22.26514	196.47	196.96	3.15403148528405	2.23206213552361	0.13793310588948	0.225393876789264	0.707685432418121	15.25	1.14661654135338	jja	202.85	2.9569970845481	jja
04221000	04	GENESEE RIVER AT WELLSVILLE NY	-77.70945	-77.66903	42.03281	42.07313	42.12229	-77.95722	658.41	27.06629	750.88	751.79	3.17552224503765	2.27054970568104	0.219528466253919	0.207214753166224	0.715016154973943	16.85	1.1541095890411	jja	212.45	3.09468317552804	jja
04224775	04	CANASERAGA CREEK ABOVE DANSVILLE NY	-77.9363	-77.67013	42.36992	42.60161	42.53562	-77.70416	519.45	36.93333	231.84	232.59	2.91436687200548	2.24468792607803	0.227626116992814	0.204650190587357	0.770214603947025	17.2	1.14285714285714	jja	217.75	3.15123010130246	jja
04233000	04	CAYUGA INLET NEAR ITHACA NY	-76.67027	-76.47131	42.25312	42.42009	42.39313	-76.54494	434.01	40.08692	91.9	92.63	2.87041615331964	2.24479438740589	0.237510791146035	0.169532329377697	0.782044925719142	18.8	1.13595166163142	jja	226	3.23319027181688	jja
04256000	04	INDEPENDENCE RIVER AT DONNATTSBURG NY	-75.32302	-75.28257	43.78238	43.82271	43.74729	-75.33435	486.49	16.94626	232.45	238.28	3.64104038329911	2.19316527036277	0.0439508855376359	0.279703584506989	0.602345769198956	15.1	1.1021897810219	son	195.8	2.80918220946915	jja
04296000	01	BLACK RIVER AT COVENTRY, VT	-72.46684	-72.21104	44.55483	44.91164	44.86894	-72.2701	390.99	40.51472	302.19	301.12	3.61529500342231	2.19077229295003	0.202147030473631	0.273317826422307	0.605973313623426	13.65	1.20796460176991	jja	185.9	2.78919729932483	mam
05056000	09	SHEYENNE RIVER NR WARWICK, ND	-100.57269	-100.53228	47.62796	47.66825	47.80555	-98.71622	493.5	4.38699	4862.02	5648.1	1.30075975359343	2.04017577002053	0.881202911822067	0.165918933282818	1.56844933461727	24.3	1.45945945945946	jja	296.4	7.85165562913907	djf
05057000	09	SHEYENNE RIVER NR COOPERSTOWN, ND	-97.94129	-97.90088	47.57742	47.61769	47.43277	-98.0276	480.87	4.08896	7582.46	8136.85	1.34999178644764	2.02071374401095	0.886216188880335	0.162742897008525	1.49683410247128	23.95	1.44277108433735	jja	288.8	7.19302615193026	djf
05057200	09	BALDHILL CREEK NR DAZEY, ND	-98.79334	-98.08246	47.12513	47.68665	47.22916	-98.12482	447.5	2.33897	1897.33	1900.4	1.45177960301164	2.03825073237509	0.916413868842179	0.141789208175196	1.40396705405342	24.85	1.44057971014493	jja	296.85	7.40274314214464	djf
05062500	09	WILD RICE RIVER AT TWIN VALLEY, MN	-96.28237	-95.202	46.97395	47.54974	47.26663	-96.24478	428.27	5.82564	2407.05	2435.91	1.88817659137577	2.0240610403833	0.811813802664503	0.154627702341673	1.07196596421552	22.85	1.36826347305389	jja	274.25	5.57418699186992	djf
05087500	09	MIDDLE RIVER AT ARGYLE, MN	-96.94247	-95.97096	48.21741	48.5576	48.34109	-96.81812	306.72	1.8495	600.82	720.85	1.63675017111567	1.96445653661875	0.840967265732072	0.157256412014928	1.2002177065787	22.55	1.39197530864198	jja	281.95	6.00532481363152	djf
05120500	09	WINTERING RIVER NR KARLSRUHE, ND	-100.77858	-100.73816	47.76145	47.80174	48.13834	-100.53986	515.77	5.85036	1509.83	1509.83	1.31184394250513	2.03884728268309	0.80189939400823	0.19176626992326	1.55418431767856	24.3	1.36901408450704	jja	304.15	8.15415549597855	djf
05123400	09	WILLOW CREEK NR WILLOW CITY, ND	-100.54028	-100.49943	48.62016	48.66072	48.58889	-100.44208	492.06	4.58163	3206.1	3220.65	1.3522984257358	1.95294453114305	0.876914309775521	0.186706740064827	1.44416683032108	23	1.44654088050314	jja	289.4	7.13686806411837	djf
05129115	09	VERMILION RIVER NR CRANE LAKE, MN	-92.05589	-92.01548	47.76001	47.80029	48.26463	-92.56599	428.21	6.94996	2357.59	2373.72	1.97311567419576	1.9006168788501	0.759441890994257	0.174442072457906	0.963256692806313	19.35	1.29	jja	251.5	4.82262703739214	djf
05131500	09	LITTLE FORK RIVER AT LITTLEFORK, MN	-92.99621	-92.95581	47.4792	47.51949	48.39578	-93.54933	413.17	5.75333	4383.51	4344.13	1.99650239561944	1.92146580424367	0.76006319319503	0.17134345141572	0.962415977290882	18.4	1.36802973977695	jja	245	4.989816700611	djf
05291000	07	WHETSTONE RIVER NEAR BIG STONE CITY, SD	-97.10834	-96.44358	45.10971	45.51874	45.29163	-96.48756	432.13	8.90129	1046.78	1058.82	1.73521013004791	2.23716446269678	0.75120196348746	0.148874500915531	1.28927581965823	24.25	1.38176638176638	jja	288.1	6.5551763367463	djf
05362000	07	JUMP RIVER AT SHELDON, WI	-90.98626	-90.07747	45.21027	45.69875	45.30803	-90.95652	434.01	5.6153	1477.29	1494.31	2.35849691991786	2.08166539356605	0.623901120098162	0.174430982504896	0.882623749043753	22.85	1.28732394366197	jja	254.85	4.33787234042553	djf
05393500	07	SPIRIT RIVER AT SPIRIT FALLS, WI	-90.23199	-89.95174	45.33053	45.56304	45.44913	-89.97931	487.07	7.18561	220.44	225.96	2.38842299794661	2.0864234770705	0.583819247039892	0.19616986570515	0.873556936465714	22.3	1.23888888888889	jja	253.65	4.0102766798419	djf
05399500	07	BIG EAU PLEINE RIVER AT STRATFORD, WI	-90.42052	-90.03421	44.75404	45.1319	44.82191	-90.07958	408.61	4.56736	576.3	578.57	2.28198631074606	2.12755225188227	0.641754841410851	0.156958255923397	0.932324721609175	22.2	1.19354838709677	jja	255.55	4.18591318591319	djf
05408000	07	KICKAPOO RIVER AT LA FARGE, WI	-90.70287	-90.66248	43.80265	43.84293	43.57414	-90.64319	348.35	18.52763	689.33	689.79	2.48642299794661	2.22445122518823	0.625557299997423	0.140156645371	0.894639096817102	21.85	1.29289940828402	jja	261.75	4.43268416596105	djf
05412500	07	Turkey River at Garber, IA	-91.22442	-91.18403	42.61504	42.65533	42.73999	-91.2618	327.65	8.01917	3858.21	4026.17	2.68833812457221	2.27296245037645	0.667597526414301	0.123139414745974	0.845489795201318	21.7	1.2122905027933	jja	256.05	4.33983050847458	djf
05413500	07	GRANT RIVER AT BURTON, WI	-90.79814	-90.75775	42.74569	42.78598	42.72027	-90.81929	280.29	14.29374	695.33	710.46	2.65133880903491	2.2835888569473	0.607552984594074	0.124159245932601	0.861296507698511	21.9	1.17112299465241	jja	259.15	4.23102040816326	djf
05414000	07	PLATTE RIVER NEAR ROCKVILLE, WI	-90.7104	-90.39252	42.70723	43.00017	42.7311	-90.64041	291.51	11.74505	370.79	368.71	2.70729500342231	2.27733850787132	0.595308071318601	0.123542293769616	0.841185945747515	22.5	1.171875	jja	259	4.20454545454545	djf
05444000	07	ELKHORN CREEK NEAR PENROSE, IL	-89.80561	-89.51678	41.875	42.16846	41.90281	-89.69622	241.53	6.34198	376.35	377.29	2.80612457221081	2.3826758384668	0.44883436444549	0.113352332875094	0.849098383607968	22.7	1.36336336336336	jja	259.45	4.85406922357343	son
05454000	07	Rapid Creek near Iowa City, IA	-91.52403	-91.35653	41.65603	41.80108	41.70002	-91.48767	225.39	4.6154	65.38	68.41	2.74700342231348	2.38700681724846	0.570875786406306	0.102381239516297	0.868949342348529	23.15	1.36176470588235	jja	262.55	4.85304990757856	djf
05458000	07	Little Cedar River near Ionia, IA	-92.52503	-92.48426	43.07694	43.11748	43.03328	-92.50354	355.97	4.61454	776.76	783.45	2.56788227241615	2.25891423682409	0.727605612968709	0.122540965691067	0.879679828428681	23.2	1.27823691460055	jja	265.2	4.75268817204301	djf
05466500	07	EDWARDS RIVER NEAR NEW BOSTON, IL	-91.02492	-89.94201	41.12803	41.38545	41.18698	-90.96737	222.09	4.95695	1151.57	1163.86	2.73042984257358	2.44143908281999	0.409918998753446	0.107102802145215	0.894159243629859	22.55	1.26685393258427	jja	259.6	5.05058365758755	djf
05487980	07	White Breast Creek near Dallas, IA	-93.2625	-93.22213	40.94601	40.98628	41.24688	-93.26607	309.96	6.21127	882.73	878.08	2.68562354551677	2.42960577686516	0.613011766762408	0.0964519167641938	0.90467101426818	23.35	1.21298701298701	jja	265.1	4.98308270676692	djf
05488200	07	English Creek near Knoxville, IA	-93.33023	-93.01447	41.05032	41.32759	41.30055	-93.04548	282.37	6.56634	234.21	234.94	2.66347980835044	2.42888078028747	0.606905242531454	0.10182137585369	0.911920102668898	23.75	1.20865139949109	jja	267.9	5.06906338694418	djf
05489000	07	Cedar Creek near Bussey, IA	-93.27588	-92.75508	40.86528	41.27558	41.219	-92.90853	281.38	6.43914	964.76	974.93	2.68093360711841	2.43541292265572	0.603570354309792	0.0977424681708028	0.908419707294955	22.65	1.21122994652406	jja	266.05	4.85936073059361	djf
05495000	07	Fox River at Wayland, MO	-92.1379	-92.09753	40.68747	40.72774	40.39241	-91.59788	236.65	5.82876	1027.55	1029.86	2.72977412731006	2.4957765229295	0.488646008005251	0.0965623589589288	0.914279499523595	23.3	1.18575063613232	jja	265.95	4.94790697674419	djf
05495500	07	BEAR CREEK NEAR MARCELLINE, IL	-91.14726	-91.10547	40.31963	40.3613	40.14282	-91.33737	203.55	4.21758	905.56	885.73	2.75290622861054	2.5343523340178	0.38050476374675	0.0758324970984556	0.920609756946551	23.5	1.27371273712737	jja	270.4	4.99815157116451	djf
05501000	07	North River at Palmyra, MO	-91.67068	-91.63031	39.62637	39.66665	39.81799	-91.5177	215.88	5.30531	922.83	929.86	2.82039425051335	2.56293619438741	0.37291823453968	0.0805965933083467	0.908715579008473	24	1.21212121212121	jja	268.5	4.84220018034265	djf
05503800	07	Crooked Creek near Paris, MO	-92.28868	-91.96982	39.54382	39.77818	39.58483	-91.99349	232.79	3.69705	212.64	212.69	2.94587816563997	2.57790002737851	0.376372837668318	0.0832843857982754	0.875087115769595	24.25	1.25	jja	270.25	5.02790697674419	djf
05507600	07	Lick Creek at Perry, MO	-91.69469	-91.65255	39.41466	39.45605	39.43143	-91.67627	232.77	1.80947	275.38	275.86	2.92049281314168	3.5702605065024	0.326668711271449	0.0742633892998097	1.22248563339614	23.6	1.2722371967655	jja	268.5	4.9584487534626	djf
05508805	07	Spencer Cr. bl Plum Cr. nr Frankford, MO	-91.64827	-91.27169	39.25511	39.57954	39.52046	-91.34275	223.69	4.6271	536.4	536.51	2.87245995893224	2.69494711841205	0.322870999886847	0.075793058486455	0.938201805052775	23.3	1.24932975871314	jja	268.4	4.86231884057971	djf
05514500	07	CUIVRE RIVER NEAR TROY, MO	-91.69134	-91.65097	39.09438	39.13466	39.0088	-90.97754	226.22	7.41926	2407.41	2410.51	2.94821081451061	2.61346919917864	0.28403037401739	0.0713893692063958	0.886459403213494	23.3	1.22955145118734	jja	264.65	4.85596330275229	djf
05525500	07	SUGAR CREEK AT MILFORD, IL	-87.33682	-87.29643	40.59795	40.63824	40.63004	-87.72392	217.33	2.73734	1158.76	1158.24	2.84659000684463	2.46637173169062	0.320439505090912	0.0775662992910571	0.866430264196892	21.8	1.19452054794521	jja	255.4	4.36208368915457	son
05556500	07	BIG BUREAU CREEK AT PRINCETON, IL	-89.5452	-88.99669	41.3371	41.72626	41.36587	-89.49843	217.97	6.17927	505.09	507.09	2.78313757700205	2.3916507871321	0.423445844697201	0.106987814559373	0.859336170405326	23.2	1.26775956284153	jja	258.85	4.79351851851852	son
05584500	07	LA MOINE RIVER AT COLMAR, IL	-91.25699	-90.43978	40.20921	40.69005	40.33032	-90.89624	197.83	3.91674	1695.67	1711.89	2.77042710472279	2.50508792607803	0.386434451108192	0.0864765586667042	0.904224450377187	23.25	1.2533692722372	jja	265.3	4.94962686567164	djf
05585000	07	LA MOINE RIVER AT RIPLEY, IL	-91.25699	-90.41751	39.94637	40.69005	40.02477	-90.63179	197.96	4.56575	3354.61	3371.38	2.7668076659822	2.51276247775496	0.36944037726639	0.0820506908680342	0.908181117411695	23	1.24324324324324	mam	265.55	4.91759259259259	djf
05591550	07	WHITLEY CREEK NEAR ALLENVILLE, IL	-88.55808	-88.28183	39.42411	39.58006	39.5067	-88.52756	211.21	3.71276	96.21	97.12	2.89986036960986	2.58387075975359	0.197561873718447	0.0692516054963585	0.891032818970254	23.5	1.29120879120879	jja	263.9	4.85556577736891	son
05592050	07	ROBINSON CREEK NEAR SHELBYVILLE, IL	-89.03891	-88.72831	39.35108	39.60927	39.40587	-88.89646	191.16	3.71375	254.12	260.92	2.83289801505818	2.59084689938398	0.188157465283187	0.0740889287495313	0.914557066866657	23.55	1.22337662337662	jja	262.85	4.69794459338695	son
05592575	07	HICKORY CREEK NEAR BROWNSTOWN, IL	-88.98556	-88.77169	38.87854	39.03516	38.93699	-88.95284	176.47	1.56531	115.25	116.33	2.9833826146475	2.67331103353867	0.13197632155276	0.0638801924050215	0.896067108661667	24.8	1.19230769230769	mam	264.25	4.59565217391304	son
05593575	07	LITTLE CROOKED CREEK NEAR NEW MINDEN, IL	-89.51542	-89.2052	38.29703	38.47967	38.44172	-89.41675	153.43	3.13593	217.67	220.52	2.96442299794661	2.67545564681725	0.143569501234744	0.0547473552431735	0.902521552649698	24.55	1.16627078384798	mam	268.7	4.76418439716312	son
05593900	07	EAST FORK SHOAL CREEK NEAR COFFEEN, IL	-89.42346	-89.20363	39.12494	39.36076	39.14894	-89.35231	196.82	3.03005	145.45	145.69	2.86180150581793	2.62180369609856	0.174782457807895	0.0734339258739105	0.916137506660939	24.4	1.22	jja	267.5	4.73032714412025	son
05595730	07	RAYSE CREEK NEAR WALTONVILLE, IL	-89.23051	-89.00801	38.19507	38.4719	38.25394	-89.03979	151.58	3.36518	236.76	233.33	3.100681724846	2.67097641341547	0.11466886135199	0.05667164669358	0.861415859619752	24	1.19106699751861	mam	265.8	4.74642857142857	son
06037500	10	Madison River near West Yellowstone MT	-111.09626	-110.50753	44.31931	44.86724	44.65687	-111.06827	2412.29	37.64619	1126.25	1127.58	2.40582477754962	2.60378079397673	-0.405931800714633	0.648344907835478	1.08228197592541	14.1	1.34928229665072	djf	223.3	5.26650943396226	jja
06043500	10	Gallatin River near Gallatin Gateway MT	-111.55093	-110.85022	44.82996	45.56866	45.49743	-111.27051	2374.11	116.56357	2120.42	2120.46	2.19833264887064	2.68993431895962	-0.0683381052053208	0.580824120327646	1.22362478687724	12.05	1.19900497512438	mam	213.75	4.09875359539789	jja
06154410	10	Little Peoples Creek near Hays MT	-108.71101	-108.56354	47.89517	48.01833	47.9661	-108.66071	1168.62	49.82483	33.41	47.72	1.2908720054757	2.06622574948665	0.762951910594356	0.197818198014384	1.60064339510192	26.75	1.65634674922601	jja	307.1	8.82471264367816	djf
06188000	10	LAMAR RIVER NR TOWER FALLS RANGER STATION, YNP	-110.42109	-109.8041	44.53928	45.23898	44.92772	-110.39381	2569.59	104.83955	1730.28	1730.62	2.2527446954141	2.53167455167693	-0.229372987097908	0.621106810157812	1.12381778407054	10.05	1.28846153846154	son	209	4.28717948717949	jja
06191500	10	Yellowstone River at Corwin Springs MT	-110.92892	-109.70254	43.92574	45.27573	45.11188	-110.79438	2547.95	94.05817	6783.59	6808.28	2.16386721423682	3.33267828884326	-0.24334125717068	0.629262259561398	1.54014916761825	9.75	1.28289473684211	mam	203.65	4.56103023516237	jja
06221400	10	DINWOODY CREEK ABOVE LAKES, NEAR BURRIS, WYO.	-109.71299	-109.37678	43.14187	43.38286	43.34551	-109.41014	3336.8	127.16435	227.88	231.93	1.55064065708419	3.00475832991102	0.0108231064378987	0.714826752405444	1.93775283537396	22.75	1.45833333333333	mam	274.2	6.26742857142857	jja
06224000	10	BULL LAKE CREEK ABOVE BULL LAKE, WY	-109.65089	-109.17064	42.91874	43.21577	43.1769	-109.20291	3116.82	105.14637	484.86	485.69	1.47903627652293	2.58516339493498	0.0241078883289395	0.693901350936104	1.7478701746332	23.35	1.5016077170418	mam	275.95	6.46252927400468	jja
06278300	10	SHELL CREEK ABOVE SHELL CREEK RESERVOIR, WY	-107.43566	-107.25475	44.42483	44.56252	44.50802	-107.40369	2953.37	86.72682	58.85	59.23	1.93391923340178	2.55176291581109	0.0435232793680325	0.732862235334757	1.31947750026898	16.85	1.25278810408922	mam	255.85	5.29162357807653	jja
06280300	10	SOUTH FORK SHOSHONE RIVER NEAR VALLEY, WY	-109.89451	-109.42281	43.78135	44.2435	44.20828	-109.55489	3003.52	141.18886	793.95	793.85	1.9521492128679	2.54396625598905	-0.0999368270576154	0.666773488915146	1.30316178661964	15.95	1.276	mam	235.8	4.24482448244824	jja
06289000	10	Little Bighorn River at State Line nr Wyola MT	-107.88516	-107.48248	44.74541	45.03341	45.00691	-107.61509	2507.99	86.42554	471.27	472.4	1.72181108829569	2.4896523340178	0.0299032787862332	0.583642806430044	1.4459497623994	18.5	1.43410852713178	mam	258.8	5.63220892274211	jja
06291500	10	Lodge Grass Cr ab Willow C Div nr Wyola MT	-107.93151	-107.54998	44.89563	45.15666	45.12644	-107.60054	2238.49	100.83533	217.96	220.72	1.56217796030116	3.10414485968515	0.149455513844873	0.404772816694431	1.98706225447369	22.15	1.56537102473498	mam	272.8	6.52631578947368	jja
06311000	10	NORTH FORK POWDER RIVER NEAR HAZELTON, WY	-107.1464	-107.01986	43.99693	44.17686	44.02774	-107.08089	2515.87	41.0532	61.23	62.96	1.45656536618754	2.44152403832991	0.269035363438014	0.57382796016244	1.67622002761224	23.65	1.46894409937888	mam	279.25	6.5474794841735	jja
06332515	10	BEAR DEN CREEK NR MANDAREE, ND	-102.96753	-102.92711	47.73609	47.77638	47.78724	-102.76853	683.69	21.51406	191.49	191.55	1.2116372347707	2.47515414099932	0.818659017571152	0.173914615394175	2.04281782531033	23.65	1.42900302114804	jja	293.25	6.92443919716647	djf
06339100	10	KNIFE RIVER AT MANNING, ND	-103.24112	-102.74183	47.14514	47.44318	47.23613	-102.76991	759.27	10.76088	529.14	529.56	1.15557973990418	2.11859582477755	0.838254396394264	0.160349274004295	1.83336186298423	24.3	1.5	jja	297.4	7.59642401021711	djf
06339500	10	KNIFE RIVER NR GOLDEN VALLEY, ND	-102.57498	-102.53456	46.88624	46.92653	47.15445	-102.05989	711.32	10.60067	3171.46	3161.84	1.13635455167693	2.15978320328542	0.834636765828901	0.161668315048542	1.90062441347923	23.25	1.50485436893204	jja	298.65	8.04986522911051	djf
06344600	10	GREEN RIVER NR NEW HRADEC, ND	-103.34954	-103.30912	47.13012	47.17041	47.02779	-103.05324	796.57	7.89802	402.5	408.92	1.13692402464066	2.12980318959617	0.835102017131009	0.162624033289867	1.87330300304748	25.2	1.56521739130435	jja	297.9	7.83947368421053	djf
06350000	10	CANNONBALL RIVER AT REGENT, ND	-102.58223	-102.54182	46.32295	46.36324	46.42667	-102.55183	833.77	7.61453	1501.05	1506.19	1.07796030116359	2.17467871321013	0.771483147435968	0.164913327830338	2.01740148580862	24.05	1.54166666666667	jja	302.35	8.28356164383562	djf
06352000	10	CEDAR CREEK NR HAYNES, ND	-102.71741	-102.67586	46.30689	46.34829	46.15417	-102.47405	840.97	7.25043	1441.83	1443.13	1.09566735112936	2.33464149212868	0.751851497127695	0.168403955596369	2.13079406785484	24.15	1.46808510638298	jja	301.65	8.01195219123506	djf
06353000	10	CEDAR CREEK NR RALEIGH, ND	-101.86795	-101.82754	45.85023	45.89052	46.09167	-101.33374	767.71	9.54494	4526.51	4605.23	1.13522792607803	3.04309965776865	0.779534463291686	0.155792225582551	2.68060676438952	23.45	1.44307692307692	jja	300.55	8.07930107526882	djf
06354000	10	CANNONBALL RIVER AT BREIEN, ND	-101.86795	-101.82754	45.85023	45.89052	46.37611	-100.93444	743.88	9.74186	10598.19	10626.74	1.13818754277892	2.64071333333333	0.787551447045482	0.159263499974743	2.32010387926576	22.65	1.44267515923567	jja	296.75	7.91333333333333	djf
06360500	10	MOREAU R NEAR WHITEHORSE SD	-101.64167	-101.60126	44.94548	44.98577	45.25582	-100.84292	802.48	10.51138	12654.96	12601.47	1.1871923340178	2.2793320054757	0.723823144275992	0.152009123153346	1.9199349087454	23.15	1.43343653250774	jja	293.6	7.56701030927835	djf
06404000	10	BATTLE CR NEAR KEYSTONE SD	-103.35916	-103.31658	43.84874	43.89099	43.87249	-103.33658	1506.1	44.57631	151.83	151.87	1.54081998631075	2.40860933607118	0.742308699305366	0.191294358675479	1.56319969721981	24.85	1.48802395209581	jja	284.9	6.71142520612485	djf
06406000	10	BATTLE CR AT HERMOSA SD	-103.25695	-103.21655	43.78529	43.82558	43.82805	-103.19602	1337.4	35.11128	436.34	437.52	1.42815058179329	2.37129378507871	0.747918616778269	0.167832878351021	1.66039478981351	24.25	1.49230769230769	jja	287.55	7.15298507462687	djf
06408700	10	RHOADS FORK NEAR ROCHFORD SD	-103.95063	-103.81245	44.07877	44.1732	44.13665	-103.85854	2018.14	35.35106	20.8	27.48	1.83809308692676	2.35321028062971	0.492574918443012	0.373160739301437	1.28024543336062	22.6	1.43492063492063	jja	273.6	6.08676307007786	djf
06409000	10	CASTLE CR ABOVE DEERFIELD RES NEAR HILL CITY SD	-104.04588	-103.73703	43.88274	44.15052	44.01359	-103.83048	1960.28	31.3792	205.33	209.41	1.73344284736482	2.60291745379877	0.561712233684554	0.343337176611808	1.50158827431532	22.85	1.43710691823899	jja	270.4	5.84017278617711	djf
06431500	10	SPEARFISH CR AT SPEARFISH SD	-104.08292	-103.78043	44.12202	44.51308	44.48248	-103.86159	1889.64	36.22756	427.1	427.98	1.96518275154004	2.90636227241615	0.393724656067756	0.36993144167527	1.47892722452329	20.7	1.42268041237113	jja	261.65	5.35619242579324	son
06440200	10	SOUTH FORK BAD R NEAR COTTONWOOD,SD	-102.10504	-102.06464	43.76548	43.80577	43.96888	-101.76709	756.84	9.79001	649.19	654.7	1.31600958247775	2.36404299794661	0.662348894220469	0.140805850137048	1.79637217648191	24.25	1.41399416909621	jja	295.2	7.20879120879121	djf
06441500	10	BAD R NEAR FORT PIERRE SD	-102.10504	-102.06464	43.76548	43.80577	44.32665	-100.3843	683.42	12.47192	8152.55	8143.02	1.30950581793292	2.33509107460643	0.682999422778656	0.131508246967888	1.78318495620922	23.05	1.41411042944785	jja	291.05	7.24004975124378	djf
06447000	10	WHITE R NEAR KADOKA SD	-102.43666	-102.39553	42.75504	42.79537	43.7525	-101.52487	1057.12	14.40932	12849.71	12869.46	1.31316084873374	2.72546258726899	0.67908873512752	0.142712537945758	2.07549790255863	23.3	1.40361445783133	jja	285.85	6.87966305655836	djf
06447500	10	LITTLE WHITE R NEAR MARTIN SD	-102.28353	-101.59427	42.88327	43.244	43.16667	-101.63015	1040.9	6.49678	826.61	793.15	1.43718138261465	2.41581880903491	0.678962210187896	0.155649176414783	1.68094218186979	25.25	1.41456582633053	jja	292.45	7.17668711656442	djf
06450500	10	LITTLE WHITE R BELOW WHITE RIVER SD	-101.0115	-100.97111	43.03249	43.07277	43.60139	-100.74986	912.42	10.41664	4111.27	4074.44	1.47141136208077	2.36722511978097	0.690499953907953	0.144339852595579	1.60881258687129	24	1.42011834319527	jja	285.4	6.87710843373494	djf
06452000	10	WHITE R NEAR OACOMA SD	-102.43666	-102.39553	42.75504	42.79537	43.74833	-99.55649	923.24	12.73758	25791.04	25817.78	1.38209308692676	2.40919312799452	0.682097416945877	0.131326767820336	1.74314823710727	22.2	1.4185303514377	jja	278.6	6.36073059360731	djf
06453600	10	PONCA CREEK AT VERDEL, NEBR.	-98.17893	-98.13531	42.78506	42.831	42.81099	-98.17586	569.46	12.77542	2101.42	2104.33	1.71765639972621	2.38583323750856	0.699911406330621	0.12831899313647	1.38900494760701	25.25	1.40277777777778	jja	289.85	6.89298454221165	djf
06464500	10	KEYA PAHA R AT WEWELA SD	-99.76849	-99.72811	43.09575	43.13602	43.02889	-99.78067	768.53	9.07924	2914.04	2924.68	1.54643942505133	2.4016810403833	0.73334815179373	0.131171470707478	1.55303919537849	25.15	1.4169014084507	jja	290.7	7.21339950372208	djf
06468170	10	JAMES RIVER NR GRACE CITY, ND	-100.16705	-98.81841	47.25919	47.86755	47.55805	-98.86289	516.41	4.68375	2809.1	2833.13	1.3077453798768	2.06557177275838	0.920667036511498	0.143378889321559	1.57949078203051	25.05	1.41926345609065	jja	301.35	8.47679324894515	djf
06468250	10	JAMES RIVER ABOVE ARROWWOOD LAKE NR KENSAL, ND	-100.16705	-98.61362	47.25919	47.86755	47.39972	-98.79761	508.66	4.53343	3242.61	3247.76	1.31975496235455	2.85033828884326	0.922018963591716	0.144027317206749	2.15974811245113	25.25	1.42253521126761	jja	299.3	8.29085872576177	djf
06470800	10	BEAR CREEK NR OAKES, ND	-98.4027	-97.93004	46.20013	46.86081	46.22524	-98.07177	423.26	3.54676	1071.14	995.65	1.55759890485969	2.10519089664613	0.824561369384648	0.14718946482151	1.35156161838453	24.95	1.39385474860335	jja	296.7	7.35315985130112	djf
06477500	10	FIRESTEEL CR NEAR MOUNT VERNON SD	-98.47073	-98.43035	43.52235	43.56263	43.7764	-98.24567	466.03	5.211	1512.44	1533.63	1.68001642710472	2.33532168377823	0.698989465592905	0.132381124658994	1.3900588387715	24.6	1.37430167597765	jja	295.6	7.26289926289926	djf
