stid,station_name,lat,lon,elev,begints,iem_network
RSDM7,102 River  AT Rosendale,40.0456,-94.8289,283,2008-10-22 00:00,MO_DCP
AATC2,10 ENE Alamosa River,37.3528,-106.2769,2583,2010-12-07 00:00,CO_DCP
GARO3,10 METER WINDS,45.5703,-123.9561,5.4457383,2010-12-07 00:00,OR_DCP
WMOC2,10 NW W Monument Ck @ Afa,38.9706,-104.9022,2207,2010-12-07 00:00,CO_DCP
ESIM6,10 S East Ship Island near Biloxi,30.2575,-88.8708,0,2010-12-07 00:00,MS_DCP
OHIT2,10 SW O.H. Ivie,31.5,-99.6681,472,2010-12-07 00:00,TX_DCP
MWBA3,10TH STREET WASH BASIN #1,33.5797,-112.0544,406,2010-12-16 00:00,AZ_DCP
FOGF1,11 E Fort Ogden,27.0517,-81.7847,17,2010-12-07 00:00,FL_DCP
LYDM8,11 E LIBBY DAM,48.4667,-115.3167,773,2010-12-07 00:00,MT_DCP
TERC2,11 ENE Alamosa River,37.3744,-106.3342,2631,2010-12-07 00:00,CO_DCP
TRRC2,11 ENE Platoro,37.3572,-106.2844,2611,2010-12-07 00:00,CO_DCP
CTTC2,11 NW Crestone,38.1319,-105.7881,2640,2010-12-07 00:00,CO_DCP
BIGF1,11 S Myakka City,27.1931,-82.1444,16,2010-12-07 00:00,FL_DCP
TMCM5,12 MILE CREEK AT C.S.A.H. #14,45.8597,-96.3583,306,2007-12-31 00:00,MN_DCP
DUMM5,12 Mile Creek Nr Dumont 3 E 12 Mile Creek Nr Dumont,45.7161,-96.3486,316,2007-12-31 00:00,MN_DCP
RGCC2,12 NW Alamosa,37.57,-106.0383,2323,2010-12-07 00:00,CO_DCP
SCKC2,12 NW Saguache,38.1633,-106.29,2454,2010-12-07 00:00,CO_DCP
CRCC2,12 SSW Parlin,38.3356,-106.7717,2690,2010-12-07 00:00,CO_DCP
SDCC2,13 SSE Crestone,37.8297,-105.5931,2413,2010-12-07 00:00,CO_DCP
GIBL1,13 SSE CRM Station 0411 near Gibson,29.4978,-90.9481,4,2010-12-07 00:00,LA_DCP
ADBA3,14 AT Adobe Dam - Phoenix,33.6769,-112.1533,421.62482,2010-12-21 00:00,AZ_DCP
MCNC2,14 N Monument Ck N. Gate,39.0311,-104.8478,2026,2010-12-07 00:00,CO_DCP
TCAF1,14 W Tamiami Canal at S-355A/Sweetwater 14W  FL,25.7611,-80.6042,3,2011-02-11 00:00,FL_DCP
TARC2,15 SE Thatcher,37.4167,-103.9167,1542,2011-03-29 00:00,CO_DCP
TXAO2,(1617)-8300 N. PEORIA-DELAWARE CRK,36.27,-95.97,187,2010-12-07 00:00,OK_DCP
VBMC2,16 ESE Model,37.3458,-103.9575,1537,2011-03-28 00:00,CO_DCP
PUKC2,17 SE Timpas,37.6167,-103.6,1330,2011-02-08 00:00,CO_DCP
SVTL1,17TH STREET CANAL 3 - GENEVA ST,30.0139,-90.1222,1,2010-12-07 00:00,LA_DCP
SVIL1,17TH STREET CANAL 6 - INTERSTATE 10,29.9965,-90.1236,2,2010-12-07 00:00,LA_DCP
THTC2,18 SE Thatcher,37.3564,-103.8997,1469,2010-12-07 00:00,CO_DCP
JCFC2,1 E Fountain,38.6844,-104.6881,1693,2010-12-07 00:00,CO_DCP
BOOI3,1 NE Brookville Tailwater,39.4333,-85,211,2008-10-16 00:00,IN_DCP
NCOC2,1 NNE Conejos,37.1028,-106.0083,2401,2010-12-07 00:00,CO_DCP
CTMC2,1 NNE Cottonwood Ck Mouth,38.9281,-104.6431,2081,2010-12-07 00:00,CO_DCP
DSVN6,1 NW Dansville,42.5833,-77.715,187,2010-12-07 00:00,NY_DCP
WHCC2,1 NW Holly,38.0581,-102.1361,1035,2010-12-07 00:00,CO_DCP
PAYF1,1 S Bowling Green,27.6203,-81.8258,24,2010-12-07 00:00,FL_DCP
CBAC2,1 SE Buena Vista,38.8369,-106.1244,2421,2010-12-07 00:00,CO_DCP
HTDM8,1 SE Huntley,45.9042,-108.317,918,2010-12-08 00:00,MT_DCP
SAFC2,1 SSE Fort Garland,37.425,-105.4144,2414,2010-12-07 00:00,CO_DCP
LCKC2,1 W Balltown,39.0758,-106.3097,2808,2010-12-07 00:00,CO_DCP
PTOC2,1 W Conejos River,37.355,-106.5436,3018,2010-12-07 00:00,CO_DCP
MMFC1,1 W MERCED FALLS,37.5217,-120.3314,109,2010-12-07 00:00,CA_DCP
LPML1,1 WNW Lake Pontchartrain near Mandeville,30.3657,-90.0922,8,2010-12-07 00:00,LA_DCP
CPSC1,20L11 - CAPLES LAKES  CA (NEAR CPLC1),38.7167,-120.05,2497,2010-12-02 00:00,CA_DCP
PRDA2,20 NNW NWLON Station near Prudhoe Bay,70.4,-148.5267,-2,2014-04-16 00:00,AK_DCP
TXBO2,(2117)-4100 N. HARTFORD-FLAT ROCK CRK,36.21,-95.98,195,2010-12-07 00:00,OK_DCP
TXCO2,(2217)-6400 N. DELAWARE,36.25,-95.95,183,2010-12-07 00:00,OK_DCP
TXDO2,(2317)-OXLEY NATURE CENTER,36.22,-95.9,189,2010-12-07 00:00,OK_DCP
TXEO2,(2417)-36TH ST N BRDG-MINGO CRK,36.206,-95.859,182,2010-12-07 00:00,OK_DCP
SFKA2,25 NE South Fork Koyukuk River at Dalton Hwy,67.0197,-150.2928,345,2014-07-23 00:00,AK_DCP
TXFO2,(2617)-KJRH-N. HWY 97,36.2,-96.1,294,2010-12-07 00:00,OK_DCP
TXGO2,(2817)-800 E. APACHE-DIRTY BUTTER CRK,36.19,-95.97,203,2010-12-07 00:00,OK_DCP
TXHO2,(29.17)-FLORENCE AND SEMINOLE,36.18,-95.94,227,2010-12-07 00:00,OK_DCP
GODC2,2 NE Camp Ck Garden Gods,38.8769,-104.8722,1930,2010-12-07 00:00,CO_DCP
NCSC2,2 NE Crestone,38.0136,-105.6922,2576,2010-12-07 00:00,CO_DCP
UFGC2,2 N Fort Garland,37.4639,-105.425,2504,2010-12-07 00:00,CO_DCP
GDRF1,2 N Gardner,27.3747,-81.7967,18,2010-12-07 00:00,FL_DCP
GRAC2,2 N Granada,38.0956,-102.3103,1059,2010-12-07 00:00,CO_DCP
JDWP1,2 N Jadwin Reservoir,41.6069,-75.2667,304,2010-12-08 00:00,PA_DCP
RBCU1,2 N RED BUTTE CK NR SLC,40.7833,-111.8,1727,2010-12-07 00:00,UT_DCP
EFKC2,2 NW Leadville,39.2725,-106.3058,3029,2010-12-07 00:00,CO_DCP
TBFF1,2 NW Oldsmar,28.053,-82.7094,9,2010-12-07 00:00,FL_DCP
BONC2,2 S Boone,38.2333,-104.2667,1360,2010-12-07 00:00,CO_DCP
MRCC2,2 SE Ordway,38.15,-103.75,1301,2010-12-07 00:00,CO_DCP
FCUC2,2 S Fountain Ck Janitell,38.8,-104.8,1793,2010-12-07 00:00,CO_DCP
CLRC2,2 SSE Granite,39.0219,-106.245,2700,2010-12-07 00:00,CO_DCP
CKAC2,2 SW Granite,39.0181,-106.2772,2717,2010-12-07 00:00,CO_DCP
FRUF1,2 SW Lorraine,27.4206,-82.4261,7,2010-12-07 00:00,FL_DCP
SRGC2,2 SW Sf Rg @ South Fork,37.6567,-106.6486,2532,2010-12-07 00:00,CO_DCP
TXIO2,(3017)-6201 E. VIRGIN,36.18,-95.91,206,2010-12-07 00:00,OK_DCP
TXJO2,(3117)-2000 N. 129TH E,36.18,-95.83,210,2010-12-07 00:00,OK_DCP
TXLO2,(3517)-7300 W. CAMERON,36.16,-96.07,224,2010-12-07 00:00,OK_DCP
TXNO2,(3617)-FIRE STN #4-522 W. 12TH,36.14,-95.99,226,2010-12-07 00:00,OK_DCP
LCAT2,3.6 N Addicks,29.8356,-95.6256,45,2010-12-07 00:00,TX_DCP
TXOO2,(3717)-1627 S. FLORENCE,36.14,-95.94,247,2010-12-07 00:00,OK_DCP
TXPO2,(3817)-11TH ST BRDG-MINGO CRK,36.148,-95.871,193,2010-12-07 00:00,OK_DCP
TXQO2,(3827)-2182 S. 73RD E,36.13,-95.9,223,2010-12-07 00:00,OK_DCP
TYWA2,38 ESE Tyee Lake Outlet near Wrangell,56.2,-131.50667,501.9424,2011-10-19 00:00,AK_DCP
SDLF1,3 E Lakeland,28.0439,-81.8764,40,2010-12-07 00:00,FL_DCP
SMSC2,3 E San Antonio River,37.1769,-106.1222,2497,2010-12-07 00:00,CO_DCP
LARC2,3 NE Las Animas,38.0808,-103.2192,1190,2010-12-07 00:00,CO_DCP
MFEM2,3 NE Liberty Reservoir/Mayfield,39.3792,-76.8456,138,2010-12-07 00:00,MD_DCP
RGTC2,3 N Lasauses,37.3161,-105.7422,2288,2010-12-07 00:00,CO_DCP
MPKC2,3 N Monument Ck Pikeview,38.9167,-104.8167,1908,2010-12-07 00:00,CO_DCP
GRVL1,3 NNW CRM Station 5373 near Garyville,30.1005,-90.6308,11,2010-12-07 00:00,LA_DCP
CBCL1,3 NW Cross Bayou Canal South,29.9842,-90.3498,5,2010-12-07 00:00,LA_DCP
SAGT2,3 NW O. C. Fisher Lk at San Angelo,31.4844,-100.4814,565,2010-12-07 00:00,TX_DCP
GCWC2,3 NW Westcliffe,38.1861,-105.4831,2346,2010-12-07 00:00,CO_DCP
WCCL1,3 SSE West Closure CPX1 near Woodmere,29.8197,-90.068,4.6950674,2013-09-06 00:00,LA_DCP
TDDC2,3 SW Trinidad,37.1333,-104.55,1928,2010-12-06 00:00,CO_DCP
LAJC2,3 W La Junta,37.9822,-103.5978,1254,2010-12-07 00:00,CO_DCP
FTLC2,3 WNW La Junta,38.0069,-103.5681,1245,2010-12-07 00:00,CO_DCP
WFHC1,3 WNW WOFFORD HEIGHTS,35.7217,-118.4989,1220,2010-12-07 00:00,CA_DCP
HMZC2,3 WSW Red Wing,37.7278,-105.3508,2575,2010-12-07 00:00,CO_DCP
MEDC2,40 N Blanca,37.7978,-105.5022,2600,2010-12-07 00:00,CO_DCP
TXRO2,(4517)-31ST S AND 55TH W,36.121,-96.048,217,2010-12-07 00:00,OK_DCP
TXSO2,(4617)-FIRE STN #18-4802 S. PEORIA,36.159,-96.032,211,2010-12-07 00:00,OK_DCP
TXVO2,(4827)-3400 S. MINGO-MINGO CRK,36.115,-95.87,201,2010-12-07 00:00,OK_DCP
TXWO2,(4917)-FIRE STN #27-11707 E. 31ST,36.12,-95.85,207,2010-12-07 00:00,OK_DCP
HORF1,4 NE Myakka Head,27.4869,-82.0236,28,2010-12-07 00:00,FL_DCP
LHNC2,4 NE Ordway,38.25,-103.7167,1336,2010-12-07 00:00,CO_DCP
MNLL1,4 SE CRM Station 0282 near Magnolia,29.4978,-89.7606,1,2010-12-07 00:00,LA_DCP
MOHC2,4 SE Fort Garland,37.3931,-105.3931,2514,2011-06-26 00:00,CO_DCP
APAC2,4 SE Fowler,38.0908,-103.9811,1319,2010-12-07 00:00,CO_DCP
JMCC2,4 SE Hasty,38.0681,-102.9369,1145,2010-12-06 00:00,CO_DCP
JMBC2,4 SE Hasty,38.0664,-102.9319,1143,2010-12-07 00:00,CO_DCP
NCTC2,4 S North Catamount Rsvr,38.9292,-105.0458,2786,2011-08-30 00:00,CO_DCP
TBSC2,4 SW Blanca,37.3861,-105.5508,2348,2010-12-07 00:00,CO_DCP
RCFC2,4 SW Fort Carson,38.6969,-104.8275,1885,2010-12-07 00:00,CO_DCP
GULF1,4 SW Gulf Hammock,29.2039,-82.7692,9,2010-12-07 00:00,FL_DCP
NMIC2,4 SW Higbee,37.7147,-103.5106,1321,2010-12-07 00:00,CO_DCP
RISM6,4 SW MS Sound/Round Island near Pascagoula,30.3136,-88.5833,0,2010-12-07 00:00,MS_DCP
FJWA3,4TH OF JULY WASH- 21 MI W OF OLD US80 &a,33.2775,-113.13,343,2010-12-16 00:00,AZ_DCP
BECC2,4 W Bear Creek,38.8225,-104.8881,1993,2010-12-07 00:00,CO_DCP
CHKC2,4 W Nathrop,38.7336,-106.1594,2486,2010-12-07 00:00,CO_DCP
TWTC2,4 WSW Balltown,39.0822,-106.54,3210,2010-12-07 00:00,CO_DCP
TXYO2,(5117)-PAGE BELCHER GOLF COURSE,36.07,-96.02,216,2010-12-07 00:00,OK_DCP
TXZO2,(5217)-FIRE STN 29-7429 S. LEWIS,36.06,-95.96,198,2010-12-07 00:00,OK_DCP
TZAO2,(5617)-3700 E. 91ST ST S.-VENSEL CRK,36.03,-95.933,216,2010-12-07 00:00,OK_DCP
TZBO2,(5717)-7008 E. 101 ST S,36.02,-95.9,229,2010-12-07 00:00,OK_DCP
BDML1,5 NE BAYOU DUPRE AT MRGO EAST,29.9351,-89.8365,4,2010-12-07 00:00,LA_DCP
BAHC2,5 NNE Penrose,38.4892,-104.9969,1732,2011-02-24 00:00,CO_DCP
SPRT2,5 N Palo Duro Reservoir,36.3617,-101.1633,870,2010-12-07 00:00,TX_DCP
LWDF1,5 SE Bradenton,27.4381,-82.4869,2,2010-12-07 00:00,FL_DCP
ARKC2,5 SE Granite,38.995,-106.2197,2638,2011-03-30 00:00,CO_DCP
TCKC2,5 SE Rocky Ford,38.0031,-103.6556,1261,2010-12-07 00:00,CO_DCP
MSLN5,5 SSE Below Mesilla Dam near Mesilla,32.21028,-106.77167,1175.0046,2010-12-07 00:00,NM_DCP
DNAL1,5 SSE CRM Station 0061 near Maurepas,30.2233,-90.64,5,2010-12-07 00:00,LA_DCP
BCBC2,5 SW Beaver Creek Blw Res,37.5986,-106.6669,2682,2010-12-07 00:00,CO_DCP
FRCC2,5 SW Cripple Creek,38.6644,-105.2269,2120,2010-12-07 00:00,CO_DCP
LGAC2,5 SW La Garita Creek,37.8133,-106.3181,2453,2010-12-07 00:00,CO_DCP
OEMO2,5 W OKEMAH,35.4294,-96.4078,246,2010-12-07 00:00,OK_DCP
TNST2,6922 OLD KATY RD,29.7842,-95.4411,20,2010-12-07 00:00,TX_DCP
WEMC2,6 ESE W Monument Ck Rampart,38.975,-104.955,2682,2010-12-07 00:00,CO_DCP
GIBN7,6 NW Reedy Fork Nr Gibsonville,36.1753,-79.6169,206,2010-12-07 00:00,NC_DCP
WMMF1,6 NW Wimauma,27.7917,-82.3522,14,2010-12-07 00:00,FL_DCP
CTLC2,6 S Crystal Reservoir,38.9222,-105.0208,2831,2010-12-07 00:00,CO_DCP
DKHC1,6 SE HESPERIA,34.3411,-117.2275,953,2010-12-07 00:00,CA_DCP
ARNC2,6 S Nathrop,38.6522,-106.0506,2259,2011-03-30 00:00,CO_DCP
LJCC2,6 SW La Jara Creek,37.2089,-106.1878,2470,2010-12-07 00:00,CO_DCP
LFKC2,6 W Leadville,39.25,-106.3667,3010,2010-12-07 00:00,CO_DCP
BBBM6,6 WNW Back Bay of Biloxi near Biloxi,30.4156,-88.9758,5,2010-12-07 00:00,MS_DCP
PBAC2,6 W Pueblo,38.2708,-104.725,1480,2010-12-07 00:00,CO_DCP
TZEO2,(7817)-HWY 97 AND 64TH S,36.071,-96.121,284,2010-12-07 00:00,OK_DCP
MMHA3,7 MILE HILL,35.1316,-114.1394,834,2010-12-07 00:00,AZ_DCP
MAHN7,7 MILE RIDGE RAWS NR MARSHALL,35.8031,-82.6503,669,2010-12-07 00:00,NC_DCP
MOWC2,7 N Monument Ck Woodmen,38.9339,-104.8167,1928,2010-12-07 00:00,CO_DCP
HENF1,7 NW Tampa,27.9997,-82.5514,8,2010-12-07 00:00,FL_DCP
FSEC2,7 S Fountain Ck Security,38.7294,-104.7333,1726,2010-12-07 00:00,CO_DCP
TZFO2,(8017)-HWY 97 AND SAPULPA,36.009,-96.111,268,2010-12-07 00:00,OK_DCP
BBCT2,8.3 ENE Fulshear,29.72,-95.7697,34,2010-12-07 00:00,TX_DCP
LAMC2,8 ENE Lamar,38.1142,-102.4833,1085,2010-12-07 00:00,CO_DCP
REMN5,8 MILE DRAW NEAR,33.65,-104.3167,1130,2010-12-07 00:00,NM_DCP
PUNF1,8 NE Punta Gorda,26.9844,-81.9358,6,2010-12-07 00:00,FL_DCP
CWRC2,8 NNE Cottonwd Ck Woodmen,38.9394,-104.7406,2047,2010-12-07 00:00,CO_DCP
CBTC2,8 NW Leadville,39.2778,-106.4278,3040,2010-12-07 00:00,CO_DCP
SCKF1,8 NW Tampa,28.0136,-82.5453,13,2010-12-07 00:00,FL_DCP
RFPL1,8 SSE Rigolets at Hwy 90 near Slidell,30.1669,-89.7406,3,2010-12-07 00:00,LA_DCP
RIGL1,8 SSE Rigolets near Lake Pontcartrain,30.1633,-89.7378,4,2010-12-07 00:00,LA_DCP
HCMC2,8 SW Leadville,39.1722,-106.3886,3013,2010-12-07 00:00,CO_DCP
PDNC2,8 SW Pinos Ck Del Norte,37.5917,-106.4494,2586,2010-12-07 00:00,CO_DCP
TBRT2,8 SW Twin Buttes Reservoir near San Angelo 8SW,31.3819,-100.5381,580,2010-12-07 00:00,TX_DCP
HRMM5,8 W 5 Mile Creek Nr Herman,45.8033,-96.2586,317,2007-12-31 00:00,MN_DCP
ACLC2,8 W Las Animas,38.0847,-103.3544,1213,2010-12-07 00:00,CO_DCP
LKDC2,9 E Sargents,39.04722,-106.40417,3306,2011-06-01 00:00,CO_DCP
PGNP1,9 Mile Run,40.4242,-79.905,255,2010-12-07 00:00,PA_DCP
ECCT2,9 SE EVANS CREEK NEAR COMSTOCK,29.5375,-101.1028,367,2010-12-07 00:00,TX_DCP
TTRC2,9 SE Fort Garland,37.3744,-105.2944,2607,2010-12-07 00:00,CO_DCP
ABBM1,Abbot,45.1903,-69.4528,130.70624,2017-12-07 00:00,ME_DCP
ABBN7,Abbotts Creek 2 SE Abbotts Ck At Lexington,35.8064,-80.2347,210,2010-12-07 00:00,NC_DCP
ABCC2,ABC LATERAL NR MONTROSE,38.485,-108.25056,1976,2010-12-07 00:00,CO_DCP
MTCA1,Abel - Mt Cheaha,33.6,-85.65,301.71387,2012-03-20 00:00,AL_DCP
ACRG1,ABERCORN CREEK NEAR SAVANNAH GA,32.2556,-81.1783,8,2010-12-07 00:00,GA_DCP
ABEK2,ABERDEEN,37.2333,-86.6833,157,2010-12-12 00:00,KY_DCP
CBAS2,ABERDEEN-20MI.NNE,45.7333,-98.3,396,2004-01-01 00:00,SD_DCP
ABEW1,Aberdeen 20NNE,47.2614,-123.7147,134.08316,2012-01-24 00:00,WA_DCP
CHLS2,ABERDEEN-24MI.SW,45.1667,-98.75,406,2009-03-23 00:00,SD_DCP
ABEM6,Tenn-Tom Waterway  AT Aberdeen L & D,33.8286,-88.5194,52,2010-12-01 00:00,MS_DCP
WCHM3,Aberjona River  AT Winchester,42.4472,-71.1394,12,2010-12-07 00:00,MA_DCP
ARST2,ABERNATHY 5NE,33.8753,-101.7569,1013,2010-12-07 00:00,TX_DCP
ACLW1,Abernathy Cr 12 WNW Longview,46.1953,-123.1656,22,2010-12-07 00:00,WA_DCP
ABNW1,ABERNATHY MTN RAWS,46.35,-123.1,505,2010-12-07 00:00,WA_DCP
MRRO3,Abernethy Creek  2 S Mompano Reservoir near Redland,45.3142,-122.5053,52.616787,2014-02-13 00:00,OR_DCP
ALEK1,Abilene,38.9298,-97.2279,351.5343,2009-02-27 00:00,KS_DCP
AFMT2,ABILENE,32.4658,-99.7019,518,2010-12-25 00:00,TX_DCP
AFKT2,ABILENE,32.4269,-99.7494,536,2010-12-25 00:00,TX_DCP
AFJT2,ABILENE,32.4156,-99.7092,528,2010-12-29 00:00,TX_DCP
AFOT2,ABILENE,32.4619,-99.7781,527,2010-12-29 00:00,TX_DCP
AFIT2,ABILENE,32.4517,-99.7417,527,2010-12-25 00:00,TX_DCP
AFPT2,ABILENE,32.3803,-99.7719,550,2010-12-25 00:00,TX_DCP
AFNT2,ABILENE,32.4261,-99.7844,538,2010-12-25 00:00,TX_DCP
AECT2,Abilene - Elm Creek,32.50722,-99.74083,509.52243,2018-04-13 00:00,TX_DCP
ABIK1,ABILENE SAND SPRING,38.91,-97.29,344,2008-10-16 00:00,KS_DCP
ABGM2,ABINGDON,39.48,-76.34,72,2010-12-07 00:00,MD_DCP
ABDV2,ABINGDON,36.6858,-81.9831,592,2010-12-07 00:00,VA_DCP
BRAM2,Abingdon - Bynum Run,39.48,-76.28056,13,2023-05-20 00:00,MD_DCP
AQSO3,Abiqua Creek  AT SILVERTON,45.0314,-122.7908,66.54598,2015-01-22 00:00,OR_DCP
ABIN5,ABIQUIU  RSVR,36.24,-106.4289,1958,2010-12-07 00:00,NM_DCP
ASBL1,Abita River  AT Abita Springs at Hwy 36,30.4816,-90.0394,21.874,2013-06-16 00:00,LA_DCP
ASKL1,Abita Springs 3NE - Abita Creek,30.4982,-89.9945,20.346495,2018-05-02 00:00,LA_DCP
BRPO1,ABRAM CREEK 1 NW BROOK PARK,41.3892,-81.8356,234,2010-05-15 00:00,OH_DCP
OKMW2,Abram Creek  AT Oakmont,39.36666,-79.17917,578.97327,2012-10-15 00:00,WV_DCP
KEEM8,Absarokee,45.5573,-109.6112,1402,2022-08-16 00:00,MT_DCP
ABSN4,Absecon Creek  AT Absecon,39.2548,-74.3115,0,2010-12-07 00:00,NJ_DCP
ASCN4,Absecon Creek  AT Absecon,39.4226,-74.4997,7,2010-12-07 00:00,NJ_DCP
ATLN4,Atlantic Ocean  AT Atlantic City Marina,39.3781,-74.4228,0.36951542,2010-12-07 00:00,NJ_DCP
HEWN5,ABV HERON LAKE,36.7425,-106.6261,2201,2010-12-07 00:00,NM_DCP
RANW2,abv. Little Sewell Crk. at Rainelle,37.96958,-80.76896,728.0072,2023-05-23 00:00,WV_DCP
ANPM1,ACADIA NATIONAL PARK RAWS,44.377,-68.261,141,2010-12-07 00:00,ME_DCP
ACBW4,A Canal At  Headworks Near Burris,43.4164,-109.3278,1877,2011-05-24 00:00,WY_DCP
ACKV2,ACCOMACK WELL,37.9564,-75.5789,12,2010-12-07 00:00,VA_DCP
ANAV2,Accotink Creek  AT Annandale,38.8128,-77.2286,71,2011-01-06 00:00,VA_DCP
LACV2,Accotink Creek  AT Lake Accotink,38.7933,-77.2181,51.814316,2011-12-23 00:00,VA_DCP
MAOA3,ACDC @ 14TH STREET,33.5419,-112.0431,391,2010-12-16 00:00,AZ_DCP
MACA3,ACDC @ 36TH ST,33.5025,-112,377,2010-12-16 00:00,AZ_DCP
MHFA3,ACDC @ 43RD AVENUE,33.5842,-112.1544,373,2010-12-16 00:00,AZ_DCP
MSXA3,ACDC @ 67TH AVE,33.6239,-112.2028,373,2010-12-16 00:00,AZ_DCP
MADA3,ACDC @ CAVE CRK,33.37,-112.12,332,2010-12-16 00:00,AZ_DCP
ACFW4,A C Forrester Ditch Near Ryan Park 6W,41.31694,-106.62222,2254.5894,2011-04-14 00:00,WY_DCP
AFWI4,Ackley Fire Wx,42.47873,-93.12094,354.13376,2015-03-16 00:00,IA_DCP
JNCW1,Acme - Jones Creek,48.71861,-122.21306,106.96047,2018-11-27 00:00,WA_DCP
ACSO2,ACME MESONET,34.8083,-98.0233,397,2010-12-07 00:00,OK_DCP
AMXP1,Acmetonia - Allegheny River,40.53611,-79.81528,233.0153,2016-11-18 00:00,PA_DCP
ACON5,ACOMITA LAKE &amp; BLUE WATER CREEK,34.7194,-107.8475,2665,2010-12-07 00:00,NM_DCP
AYLC1,A Corte Mad - Arroyo de la Laguna,37.66806,-121.90917,94,2023-02-11 00:00,CA_DCP
ACPA3,AC PARK,32.2822,-110.7294,839,2010-12-07 00:00,AZ_DCP
MCWG1,ACREE,31.5464,-84.0139,84,2010-12-07 00:00,GA_DCP
ACTM3,Action - Nashoba Brook,42.5125,-71.40472,62.21184,2020-04-28 00:00,MA_DCP
ACCC1,ACTON CAMP  ALERT 384,34.45,-118.2,804,2010-12-07 00:00,CA_DCP
ACTC1,ACTON ESCONDIDO FC261,34.4947,-118.2713,926,2010-12-07 00:00,CA_DCP
APZC1,ACTON PUMP STATION,34.4663,-118.1961,827,2010-12-07 00:00,CA_DCP
ATNC1,ACTON RAWS,34.4458,-118.2,803,2010-12-07 00:00,CA_DCP
ADAI4,Adair,41.50131,-94.6355,429.08224,2002-12-16 00:00,IA_DCP
RDAI4,Rapid Deploy A,41.97194,-91.66694,215.12074,2011-06-21 00:00,IA_DCP
WCAN7,Adako Rd 3 SW Collettsville,35.89889,-81.71592,324,2023-06-15 00:00,NC_DCP
ADKA2,Adak Station - NOS,51.8633,-176.6317,6.0384974,2015-09-06 00:00,AK_DCP
ADSO2,ADA MESONET,34.7985,-96.6691,296,2010-12-07 00:00,OK_DCP
ADMN8,ADAMS 7 SSW,48.33,-98.12,473,2008-11-05 00:00,ND_DCP
ACFS1,Adams Run - Ace Basin,32.6358,-80.3656,0.26043156,2013-03-11 00:00,SC_DCP
ABRS1,Adams Run - Ace Basin RAWS,32.6583,-80.3989,0.15064126,2012-07-02 00:00,SC_DCP
ANDO1,Adamsville,40.0708,-81.8833,310,2010-09-25 00:00,OH_DCP
ADVT2,Adamsville 1S - Lampasas River,31.29333,-98.16917,319.75058,2021-07-22 00:00,TX_DCP
AWSW4,ADAMS WEATHER STATION,44.2778,-104.1131,1767,2010-12-07 00:00,WY_DCP
CLYT2,ADDICKS,29.831,-95.6865,40,2010-12-07 00:00,TX_DCP
ASTN6,Addison,42.1081,-77.2222,301,2010-12-07 00:00,NY_DCP
ADSI2,ADDISON COUNTY RAIN AT ADDISON,41.9216,-87.975,207.36133,2018-07-27 00:00,IL_DCP
AELG1,ADEL 2S,31.1097,-83.4269,76,2010-12-07 00:00,GA_DCP
ADLW4,ADELAIDE RESERVOIR,44.525,-107.40361,2814.678,2011-10-06 00:00,WY_DCP
ADTC1,ADELANTO,34.57,-117.41,890,2010-12-09 00:00,CA_DCP
ADEI4,Adel - North Raccoon River,41.6883,-94.035,282.54233,2020-07-02 00:00,IA_DCP
ADEV2,Aden,38.61508,-77.55342,64.56459,2021-09-27 00:00,VA_DCP
NQFN6,Aden Hill Road Site N-6,41.8667,-74.6717,541.21497,2012-02-01 00:00,NY_DCP
NQBN6,Aden Road Site N-2,41.8274,-74.6726,455.10056,2012-02-01 00:00,NY_DCP
ACSN7,Aderdeen 1S - Aberdeen Creek,35.1322,-79.4305,97,2022-07-06 00:00,NC_DCP
ONFG1,ADGATEVILLE,33.2083,-83.7136,188,2010-12-07 00:00,GA_DCP
ASAC1,Adin - Ash Creek,41.19806,-120.94333,1285.4268,2021-04-06 00:00,CA_DCP
ADMC1,ADIN MTN SNOTEL,41.23583,-120.79192,1886.7,2011-01-28 00:00,CA_DCP
WCEC1,Adin - Willow Creek,41.10806,-120.92861,1330.55,2020-10-02 00:00,CA_DCP
AOBC1,ADOBE CK BLO MIDDLEFIELD RD,37.4197,-122.1169,3,2010-12-07 00:00,CA_DCP
AFCC1,ADOBE CREEK AT FOOTHILL COLLEGE,37.358,-122.128,114.16897,2018-07-09 00:00,CA_DCP
ADBC2,ADOBE RESERVOIR,38.2347,-103.2789,1263,2010-12-07 00:00,CO_DCP
ADOW2,ADOLPH,38.7461,-80.0458,709,2010-12-07 00:00,WV_DCP
ARNM4,ADRIAN,41.9167,-84.0167,225,2008-10-16 00:00,MI_DCP
ADXT2,Adrian 6WSW,35.25347,-102.76158,1297.2247,2017-11-09 00:00,TX_DCP
ANEW1,Aeneas Raws Near Loomis 5S,48.74306,-119.62222,1575.2368,2011-06-10 00:00,WA_DCP
AFTW2,AFTON,39.5356,-79.5306,841,2010-12-07 00:00,WV_DCP
AFTV2,Afton Mountain,38.0288,-78.8597,610.82733,2012-03-20 00:00,VA_DCP
AGDO3,AGATE DAM &amp; RESERVOIR,42.4167,-122.7667,454,2010-12-07 00:00,OR_DCP
NRAN1,Agate - Niobrara River,42.4236,-103.7922,1350.0414,2014-02-21 00:00,NE_DCP
AGTN1,AGATE RAWS,42.43,-103.74,1359,2010-12-02 00:00,NE_DCP
AGVC1,AGAVE HILL,33.3833,-116.4,668,2010-12-07 00:00,CA_DCP
CGSO2,Agawam 8NW - Little Washita Micronet A234,34.9274,-98.0754,392.38312,2017-03-29 00:00,OK_DCP
AMSO2,Agawam - Little Washita,34.8853,-98.0231,357.7334,2011-01-10 00:00,OK_DCP
AGYM7,Platte River 4 NE Agency,39.6833,-94.7,271,2007-12-31 00:00,MO_DCP
ALNM4,AG MESONET - ALBION,42.2619,-84.7742,301,2008-10-16 00:00,MI_DCP
TAGT2,Agnes,32.9767,-97.7858,371,2011-06-01 00:00,TX_DCP
AGFO3,AGNESS,42.55,-124.0333,399,2010-12-07 00:00,OR_DCP
AGPC1,AGNEW PASS (GOES),37.7267,-119.1419,2881,2010-12-02 00:00,CA_DCP
AGRC1,AGOURA ALERT #317,33.1356,-118.7522,0,2010-12-07 00:00,CA_DCP
MUTO2,AG STATION,36.2333,-99.1667,573,2010-12-08 00:00,OK_DCP
SSTK2,AG STATION,37.1167,-84.6167,315,2010-12-07 00:00,KY_DCP
AGST2,AG STATION CO-OP,30.9067,-102.915,923,2010-12-07 00:00,TX_DCP
AGUC1,AGUA CALIENTE  ALERT 64,32.95,-116.2833,350,2010-12-07 00:00,CA_DCP
ACHA3,Agua Caliente Wash  AT Agua Caliente Wash at Houghton Rd,32.2631,-110.7717,802,2010-12-07 00:00,AZ_DCP
ACWA3,AGUA CALIENTE WASH AT TANQUE VERDE RD,32.2508,-110.7665,791,2010-12-07 00:00,AZ_DCP
AFMA3,AGUA FRIA 11 ESE AGUA FRIA NR MAYER,34.3153,-112.0633,1113,2010-12-07 00:00,AZ_DCP
LKPA3,AGUA FRIA 20 AT Lake Pleasant - Peoria,33.8383,-112.2661,476,2010-12-07 00:00,AZ_DCP
DGSA3,AGUA FRIA 3-DUGAS,34.3667,-111.95,1331,2010-12-16 00:00,AZ_DCP
AFHA3,AGUA FRIA 3 SSE AGUA FRIA NR HUMBOLDT,34.4852,-112.2375,1362,2010-12-07 00:00,AZ_DCP
CHSA3,AGUA FRIA 6,33.9833,-112.4167,863,2010-12-16 00:00,AZ_DCP
AVOA3,AGUA FRIA @ BUCKEYE,33.4681,-112.3317,300,2010-12-16 00:00,AZ_DCP
MAFA3,AGUA FRIA @ GRAND AVE.,33.6069,-112.3044,345,2010-12-16 00:00,AZ_DCP
AFRA3,Agua Fria River 3 SW Rock Springs,34.0156,-112.1672,561,2010-12-07 00:00,AZ_DCP
BHNA3,AGUILA 15SSW - BIG HORN ROAD,33.6669,-113.2035,558,2023-03-31 00:00,AZ_DCP
WOOA3,AGUILA 8NNE - WOOD TANK,34.045,-113.0786,738,2023-03-31 00:00,AZ_DCP
RTRA3,AGUILA 9NE - RITTER DAM,34.0444,-113.0075,767,2023-03-31 00:00,AZ_DCP
UGWA3,Aguila - Upper Grass Wash,33.8775,-113.0908,696.1081,2011-01-03 00:00,AZ_DCP
AGWC1,A.G.WISHON PH,37.1511,-119.505,318,2010-12-07 00:00,CA_DCP
AHSN7,Ahoskie Creek  AT Ahoskie,36.28,-77,14,2010-12-07 00:00,NC_DCP
PRSK2,Stoner Creek at Paris,38.2,-84.2333,258,2010-12-08 00:00,KY_DCP
ASTW2,Ahston Point Plesant,38.6311,-82.1414,212,2011-04-21 00:00,WV_DCP
AHUW1,Ahtanum Creek  AT Ahtanum Creek,46.5356,-120.4722,290,2010-12-07 00:00,WA_DCP
KUSH1,Ahuimanu 4NW - Kahaluu Stream,21.43861,-157.84361,66.53947,2018-10-29 00:00,HI_DCP
AHMH1,AHUMOA,19.8364,-155.6131,1975.5123,2010-12-07 00:00,HI_DCP
HWSH1,Aiea - Halawa Stream,21.3819,-157.9033,64.3891,2016-02-25 00:00,HI_DCP
AIHH1,AIEA HEIGHTS,21.4,-157.9167,150.2927,2010-12-16 00:00,HI_DCP
AIKT2,Aiken 3WSW,34.133,-101.5695,1007.9265,2013-11-03 00:00,TX_DCP
SCAS1,Aiken - Shaws Creek,33.60528,-81.685,102.835625,2021-06-23 00:00,SC_DCP
GDYV2,AIRPORT,37.2333,-82.1333,672,2010-12-07 00:00,VA_DCP
MSTN4,AIRPORT,40.7992,-74.4153,58,2010-12-07 00:00,NJ_DCP
ATKM5,Mississippi River 1 N Aitkin,46.5333,-93.7,366,2007-12-31 00:00,MN_DCP
ATDM5,Aitkin - Miss River Diversion,46.5917,-93.6869,364.64148,2014-06-27 00:00,MN_DCP
BCAS1,AIW AT BRIARCLIFF ACRES AT NORTH MYRTLE,33.7983,-78.7533,-9,2010-12-07 00:00,SC_DCP
AJSA3,Ajo 35S - Mt Ajo,32.0297,-112.6908,1422.4784,2020-08-04 00:00,AZ_DCP
CMAA3,Ajo 5NW - Childs Mountain,32.4315,-112.945,848.2274,2020-07-06 00:00,AZ_DCP
ADTA3,AJO DETENTION BASIN,32.1833,-110.9269,772,2010-12-07 00:00,AZ_DCP
GAAA3,AJO - Gibson Arroyo,32.3745,-112.8802,575.8822,2019-07-02 00:00,AZ_DCP
ATMA3,AJO - Ten Mile Basin,32.3814,-112.859,522.40137,2019-07-02 00:00,AZ_DCP
MENA3,Ak Chin - Menagers Lake,31.8193,-112.5451,528,2020-08-04 00:00,AZ_DCP
KNMA2,AK KENAI 29 ENE,60.7257,-150.4508,85.95602,2010-12-07 00:00,AK_DCP
PWHA2,AK PORT ALSWORTH 1 SW,60.1951,-154.3196,97.82472,2010-12-07 00:00,AK_DCP
RDMA2,AK RED DOG MINE 3 SSW,68.0276,-162.9213,284.32928,2010-12-07 00:00,AK_DCP
AKWO1,Akron,41.0544,-81.51,333.91193,2012-03-20 00:00,OH_DCP
AKRN6,Akron,43.0256,-78.4761,247.31302,2013-02-06 00:00,NY_DCP
AKRI4,Big Sioux River 1 NW Akron,42.8369,-96.5628,345,2002-04-17 00:00,IA_DCP
SNTA2,AK SAND POINT 1 ENE,55.3473,-160.466,73.74872,2010-12-07 00:00,AK_DCP
ABAG1,Alabaha River  AT Alabaha River at GA 203 near Blackshear,31.3753,-82.2889,31.468397,2014-12-01 00:00,GA_DCP
ABMN6,ALABAMA,43.11,-78.4,189,2010-12-07 00:00,NY_DCP
CLBA1,Alabama River 15 AT Claiborne Dam - Tailwater,31.615,-87.5506,11,2010-12-07 00:00,AL_DCP
TYLA1,Alabama River 3 NE R.F. Henry Lock and Dam,32.3233,-86.7828,34,2010-12-01 00:00,AL_DCP
ALRA1,ALABAMA RIVER 6 NW Alabama River At US 31 Near Montgomery,32.4114,-86.4083,48,2010-12-07 00:00,AL_DCP
MRFA1,Alabama River 9 AT Millers Ferry Dam,32.1,-87.3981,11,2010-12-07 00:00,AL_DCP
CHBA1,ALABAMA RIVER  AT CHOCTAW BLUFF,31.3636,-87.765,9,2010-12-07 00:00,AL_DCP
MGMA1,Alabama River  AT Montgomery,32.3919,-86.3178,37,2010-12-07 00:00,AL_DCP
EET,ALABASTER SHELBY CO AP ASOS,33.17835,-86.78178,172.5168,2011-01-24 00:00,AL_DCP
ALHF1,Alachua 5E - FAWN,29.8028,-82.4108,49,2023-04-01 00:00,FL_DCP
ALMW4,Aladdin 5SW,44.5871,-104.2483,1227,2023-10-03 00:00,WY_DCP
RIVF1,Alafia River 4 ESE Riverview,27.8586,-82.2739,15,2010-12-07 00:00,FL_DCP
SPAF1,ALAFIA RIVER 5 SE Lithia,27.7964,-82.1178,29,2010-12-07 00:00,FL_DCP
KEYF1,ALAFIA RIVER  AT Keysville,27.8836,-82.1003,26,2010-12-07 00:00,FL_DCP
LITF1,Alafia River  AT Lithia,27.8719,-82.2114,14,2010-12-07 00:00,FL_DCP
RVWF1,Alafia River  AT Riverview,27.8675,-82.32,17,2010-12-07 00:00,FL_DCP
ALKH1,Alakahi Stream AT Kamuela,20.0741,-155.6736,1218.4333,2010-12-07 00:00,HI_DCP
RTNC1,Alameda 3ESE - R29,37.7599,-122.1965,3.1122003,2020-07-16 00:00,CA_DCP
HIHC1,Alameda 3NE - R17,37.7858,-122.1973,48.006187,2020-07-16 00:00,CA_DCP
SKHC1,Alameda 5ENE - R21,37.7895,-122.1497,356.0651,2020-07-16 00:00,CA_DCP
ALAC1,ALAMEDA STORM  ALERT 293,33.8,-117.8,114,2010-12-07 00:00,CA_DCP
PRBT2,ALAMITO CREEK 5 SE Alamito Creek 5ESE Presidio,29.5236,-104.2875,782,2010-12-07 00:00,TX_DCP
GDPC1,ALAMITOS,37.2383,-121.8692,63,2010-12-07 00:00,CA_DCP
ATOC1,ALAMITOS CREEK BLO ALMADEN RSVR,37.1686,-121.8272,176,2010-12-07 00:00,CA_DCP
ALMA3,ALAMO DAM 29 E Parker,34.2167,-113.6167,511,2010-12-07 00:00,AZ_DCP
AOMC1,ALAMO MOUNTAIN,34.6703,-118.9801,2028,2010-12-07 00:00,CA_DCP
ZANC1,ALAMO RIVER NR NILAND,33.1989,-115.5961,-71,2010-12-07 00:00,CA_DCP
AWFC2,Alamosa River Above Wightman Fork,37.4025,-106.5214,2868,2011-05-10 00:00,CO_DCP
ALRC2,Alamosa River Below Ranger Creek Near Platora 6Ne (Alaranco),37.40278,-106.45,2752.158,2011-05-01 00:00,CO_DCP
ATKA3,ALAMO TANK,32.28,-110.635,1201,2010-12-07 00:00,AZ_DCP
TIKN2,Alamo - Tikaboo Peak,37.34417,-115.35889,2373.3665,2020-02-20 00:00,NV_DCP
AWHA3,ALAMO WASH,32.2589,-110.8836,746,2010-12-07 00:00,AZ_DCP
CRAM4,Alanson - Crooked River,45.4356,-84.7894,181.03163,2015-06-08 00:00,MI_DCP
JNAF1,ALAPAHA RIVER  AT JENNINGS,30.5981,-83.0733,34,2010-12-07 00:00,FL_DCP
STNG1,Alapaha River  AT Statenville,30.7039,-83.0333,37,2010-12-07 00:00,GA_DCP
ALQF1,Alaqua Creek 2 SSW ALAQUA CREEK NR PLEASANT RIDGE,30.6689,-86.1867,28,2010-12-07 00:00,FL_DCP
WSGN7,Alarka fd- Wesser,35.3469,-83.3522,1309,2011-03-28 00:00,NC_DCP
ABNO1,Albany,39.2,-82.2167,262,2010-02-05 00:00,OH_DCP
ALBK2,ALBANY,36.75,-85.1333,302,2010-12-07 00:00,KY_DCP
PWLG1,ALBANY,31.4886,-84.2606,64,2010-12-07 00:00,GA_DCP
ABXT2,Albany 3ENE,32.74509,-99.24133,412,2022-03-06 00:00,TX_DCP
ALB,ALBANY INTL AP,42.7481,-73.8033,82,2010-12-13 00:00,NY_DCP
ALPN6,Albany - Hudson River at Port,42.6194,-73.7589,0.08865072,2016-10-07 00:00,NY_DCP
MUFG1,Albany - Muckalee Creek,31.65806,-84.10583,68.50991,2021-10-07 00:00,GA_DCP
KFDN6,Albany - Normanskill,42.6478,-73.8456,38.62646,2015-06-08 00:00,NY_DCP
PTRN6,Albany - Patroon Creek,42.66333,-73.74472,9.902011,2019-08-12 00:00,NY_DCP
APBN6,ALBANY PINE BUSH,42.7014,-73.9336,88,2010-12-07 00:00,NY_DCP
ALYN6,Albany SUNY,42.69,-73.83,92,2010-12-07 00:00,NY_DCP
LLON7,Albemarle - Little Long Creek,35.3612,-80.2043,131,2023-05-02 00:00,NC_DCP
NELC1,Alberthill 2SE - North Elsinore,33.703,-117.386,499.63757,2018-11-05 00:00,CA_DCP
ABVA1,ALBERTVILLE,34.2358,-86.1856,320,2010-12-15 00:00,AL_DCP
CWRN5,ALBINO CANYON RAWS NEAR CEDAR HILL 15ENE,36.9769,-107.6283,2176,2010-12-07 00:00,NM_DCP
ABRM8,ALBRO LAKE SNOTEL,45.59723,-111.95902,2529.8,2016-11-05 00:00,MT_DCP
EAAN5,Albuquerque 7E - Bear Arroyo,35.10222,-106.4925,1813.435,2016-09-08 00:00,NM_DCP
AADN5,Albuquerque - Academy Acres,35.15111,-106.57306,1618.218,2016-09-08 00:00,NM_DCP
BAJN5,Albuquerque - Bear Arroyo,35.15083,-106.59778,1566.753,2016-09-08 00:00,NM_DCP
CWAN5,Albuquerque - Campus Wash,35.09389,-106.62361,1566.7855,2016-09-08 00:00,NM_DCP
EGPN5,Albuquerque - Elena Gallegos Picnic,35.165,-106.47306,1948.0944,2016-09-08 00:00,NM_DCP
HAAN5,Albuquerque - Hahn Arroyo,35.12583,-106.59028,1580.1702,2016-09-08 00:00,NM_DCP
LBNN5,Albuquerque - La Boca Negra,35.15333,-106.76556,1738.657,2017-11-21 00:00,NM_DCP
NFCN5,Albuquerque - North Floodway Channel,35.1175,-106.61167,1559.2566,2016-09-22 00:00,NM_DCP
PPSN5,Albuquerque - Paseo Pump Station,35.1825,-106.64528,1522.4215,2016-09-22 00:00,NM_DCP
AARN5,Albuquerque - San Antonio Arroyo,35.1363,-106.6897,1517.7598,2016-09-22 00:00,NM_DCP
WOON5,Albuquerque - San Jose Drain,35.04889,-106.64861,1507.3622,2016-09-22 00:00,NM_DCP
HAHN5,Albuquerque - SF Hahn Arroyo,35.12111,-106.56778,1620.3413,2016-09-22 00:00,NM_DCP
WCCN5,Albuquerque - Westside Comm Center,35.05278,-106.67333,1505.5875,2016-09-22 00:00,NM_DCP
ABXN5,Albuquerque WFO,35.0376,-106.6223,1617,2023-07-02 00:00,NM_DCP
LDEC1,Alcalde,36.18333,-120.49861,838.17316,2018-04-26 00:00,CA_DCP
ALHA2,Alcan Hwy RAWS,62.83306,-141.40917,581.81006,2012-06-06 00:00,AK_DCP
SPHA2,Alcan - Paradise Hill,62.8332,-141.4091,614,2021-09-30 00:00,AK_DCP
PBWP1,Alcosan,40.4761,-80.0422,242,2010-12-07 00:00,PA_DCP
LCXA1,AL COURTLAND 2 WSW,34.6602,-87.3462,173,2010-12-07 00:00,AL_DCP
HPTG1,Alcovy River 2 SE High Point,33.5072,-83.8247,190,2010-12-07 00:00,GA_DCP
LWRG1,Alcovy River 3 NE Lawrenceville,33.9778,-83.9397,296,2010-12-07 00:00,GA_DCP
ACYG1,Alcovy River 5 NE Covington,33.64,-83.7792,213,2010-12-07 00:00,GA_DCP
ALCG1,Alcovy River 6 ESE Lawrenceville,33.9175,-83.8881,255,2010-12-07 00:00,GA_DCP
CUXA1,AL CULLMAN 3 ENE,34.1954,-86.7963,243,2010-12-07 00:00,AL_DCP
ALDM5,ALDEN LAKE,47.0581,-92.0275,430,2008-10-16 00:00,MN_DCP
ALRM8,Alder 6S - Ruby River Res,45.2392,-112.1097,1646.5391,2017-02-14 00:00,MT_DCP
ALDA3,ALDER CANYON NEAR MT. LEMMON,32.4808,-110.6458,1197,2010-12-07 00:00,AZ_DCP
ALDC1,ALDERPOINT GOES,40.1867,-123.5903,297,2010-12-07 00:00,CA_DCP
ADFW1,ALDER RAWS,46.2667,-117.5833,1547,2010-12-07 00:00,WA_DCP
ALRW2,Alderson,37.7278,-80.6467,475,2010-12-07 00:00,WV_DCP
ALDW2,Greenbrier River At AT Alderson,37.7272,-80.6333,476,2010-12-07 00:00,WV_DCP
ECKC1,ALDER SPRINGS RAWS,39.6514,-122.7236,1390,2010-12-07 00:00,CA_DCP
AESC1,ALDER SPRINGS (USACE),39.6606,-122.7086,1359,2010-12-07 00:00,CA_DCP
GLAT2,Aldine 2SW - P138,29.915,-95.3556,22.636274,2018-04-04 00:00,TX_DCP
LALM5,Aldrich - Leaf River,46.48278,-94.89417,389.11337,2016-10-27 00:00,MN_DCP
REYM5,Aldrich - Redeye River,46.49583,-94.905,389.24692,2021-01-29 00:00,MN_DCP
FRYA1,Aldridge Creek  AT Aldridge Creek / Farley,34.6239,-86.5411,180,2010-12-07 00:00,AL_DCP
SHEA1,Aldridge Creek  AT Aldridge Creek / Sherwood Dr.,34.6642,-86.5542,188,2010-12-07 00:00,AL_DCP
TONA1,Aldridge Creek  AT Aldridge Creek / Toney Dr.,34.6981,-86.5506,202,2010-12-07 00:00,AL_DCP
ADOT2,Aledo,32.6531,-97.5864,231.53958,2012-01-30 00:00,TX_DCP
FBWT2,Aledo 2NNE - Walsh Ranch,32.7221,-97.5914,312.81885,2020-01-13 00:00,TX_DCP
CTMC1,ALERT #1150,33.6686,-117.9097,24,2010-12-07 00:00,CA_DCP
BIRC1,ALERT #265,33.9219,-117.9011,113,2010-12-07 00:00,CA_DCP
LSLC1,ALERT #527,34.7333,-120.2167,243,2010-12-07 00:00,CA_DCP
ATAC1,ALERT # 711,35.4897,-120.6311,351,2010-12-07 00:00,CA_DCP
NIOC1,ALERT #723,35.0192,-120.4664,94,2010-12-07 00:00,CA_DCP
CASC1,ALERT #75,34.8167,-120.5333,224,2010-12-07 00:00,CA_DCP
OCEC1,ALERT #795,35.1,-120.6333,2,2010-12-07 00:00,CA_DCP
PIKM2,ALERT GAGE,39.3833,-76.7167,159,2010-12-07 00:00,MD_DCP
GUDC1,ALERT/GOES STREAM GAGE 4 ESE Guadalupe River above Alamaden Expr,37.2692,-121.8781,48,2010-12-13 00:00,CA_DCP
CDWC1,ALERT RESERVOIR/RAIN GAGE 5 ESE LAKE HENNESSEY,38.4819,-122.3725,88,2010-12-07 00:00,CA_DCP
MLDC1,ALERT RESERVOIR/RAIN GAGE 6 NNE MILLIKEN RESERVOIR,38.3779,-122.2283,262.00198,2011-03-07 00:00,CA_DCP
LPRC1,ALERT RES/RAIN GAGE 7 SSE LOS PADRES DAM,36.3861,-121.6669,354,2010-12-06 00:00,CA_DCP
RNDM2,ALERT STATION,39.3833,-76.8,170,2010-12-07 00:00,MD_DCP
GCGC1,ALERT STREAMFLOW GAGE 1 N GARNETT CREEK AT GREENWOOD AVE,38.5994,-122.5964,123,2010-12-07 00:00,CA_DCP
NAFC1,ALERT STREAMFLOW GAGE 1 NNE REDWOOD CREEK AT FOREST DRIVE,38.3147,-122.3328,43,2010-12-08 00:00,CA_DCP
DSAC1,ALERT STREAMFLOW GAGE 2 NNE DRY CREEK AT HWY 29,38.365,-122.3422,32,2010-12-08 00:00,CA_DCP
DNCC1,ALERT STREAMFLOW GAGE 2 WNW DUNES COLONY,36.7719,-121.7887,-3,2010-12-07 00:00,CA_DCP
MIKC1,ALERT STREAMFLOW GAGE 3 NE MILLIKEN CREEK AT ATLAS PEAK ROAD,38.3483,-122.265,30,2010-12-07 00:00,CA_DCP
SLGC1,ALERT STREAMFLOW GAGE 3 WSW SALINAS R LAGOON,36.7499,-121.8001,3.2456682,2010-12-07 00:00,CA_DCP
BVCC1,ALERT STREAMFLOW GAGE  AT BROWNS VALLEY CREEK AT MCCORMICK LANE,38.3036,-122.3312,53.256393,2015-02-17 00:00,CA_DCP
CRMC1,ALERT STREAMFLOW GAGE  AT CARMEL RIVER LAGOON,36.5352,-121.9244,2.3586414,2010-12-07 00:00,CA_DCP
MRHC1,ALERT STREAMFLOW GAGE  AT MARSH CREEK A MARSH CREEK FIRE,37.8975,-121.8606,186.21613,2015-09-08 00:00,CA_DCP
NPCC1,ALERT STREAMFLOW GAGE  AT NAPA CREEK AT HWY 29,38.3014,-122.3028,16,2010-12-07 00:00,CA_DCP
UCAC1,ALERT STREAMFLOW GAGE  AT SALINAS R A SAN LUCAS BRIDGE,36.1169,-121.0269,105,2010-12-07 00:00,CA_DCP
KCBC1,ALERT STREAMFLOW GAGE  AT SALINAS RIVER A KING CITY PEDESTRIAN B,36.2033,-121.1428,88.81607,2011-09-12 00:00,CA_DCP
DORC1,ALERT STREAMFLOW GAGE  AT SALVADOR CHANNEL AT BIG RANCH ROAD,38.3284,-122.2899,15.311479,2015-11-01 00:00,CA_DCP
KCGC1,ALERT STREAMFLOW GAGE  AT SAN LORENZO C A KING CITY GOLF COURSE,36.2051,-121.1199,95.2719,2015-01-15 00:00,CA_DCP
SPHC1,ALERT STREAMFLOW GAGE  AT SULPHUR CK AT WHITE SULPHUR SPRINGS RD,38.4903,-122.4817,117,2010-12-07 00:00,CA_DCP
YORC1,ALERT STREAMFLOW GAGE  AT YORK CREEK AT HIGHWAY 29,38.5102,-122.4786,87.010315,2015-06-07 00:00,CA_DCP
LLNC1,ALERT STREAMFLOW/RAIN GAGE 1 NW NAPA RIVER AT LODI LANE,38.5269,-122.4961,79,2010-12-07 00:00,CA_DCP
HCRC1,ALERT STREAMFLOW/RAIN GAGE 1 SW HOPPER CK AT HWY 29,38.4081,-122.3714,55,2010-12-06 00:00,CA_DCP
DAWC1,ALERT STREAMFLOW/RAIN GAGE  AT NAPA RIVER AT DUNAWEAL LANE,38.5688,-122.5551,97.223656,2015-01-10 00:00,CA_DCP
NAAC1,ALERT STREAMFLOW/RAIN GAGE  AT NAPA RIVER AT LINCOLN AVE,38.3097,-122.2769,16,2010-12-07 00:00,CA_DCP
SUUC1,ALERT STREAMFLOW/RAIN GAGE  AT SULPHUR CREEK AT POPE STREET,38.5052,-122.4639,71.30795,2015-02-03 00:00,CA_DCP
OCRC1,ALERT STREAM GAGE  AT BELMONT CK A HARBOR BLVD A OLD COUNTY ROAD,37.5172,-122.2708,6.1831064,2014-12-20 00:00,CA_DCP
CCJC1,ALERT STREAM GAGE  AT CARNEROS CREEK A OLD SONOMA ROAD,34.3129,-117.479,955.76416,2018-12-01 00:00,CA_DCP
PYSC1,ALERT STREAM GAGE  AT PETALUMA RIVER A PAYRAN STREET BRIDGE,38.2456,-122.6383,1,2010-12-07 00:00,CA_DCP
IWNC1,ALERT STREAM GAGE  AT SAN LORENZO RIVER A LOMOND STREET BRIDGE,37.1258,-122.119,171.09009,2014-12-08 00:00,CA_DCP
PWCC1,ALERT STREAM GAGE  AT WASHINGTON CREEK A HOLLY LANE,38.2456,-122.6339,5,2010-12-07 00:00,CA_DCP
CYEC1,Alert Stream Gage/Forecast Point 2 NE Coyote Creek NR Edenvale,37.2708,-121.7964,61,2010-12-07 00:00,CA_DCP
WIGC1,ALERT STREAM GAGE  NW WIGGINS CREEK A RAINSVILLE ROAD,38.2711,-122.6856,9,2010-12-07 00:00,CA_DCP
PTMC1,ALERT STREAM GAGE  NW WILLOW BROOK A OLD REDWOOD HWY BRIDGE,38.2797,-122.6694,12,2010-12-07 00:00,CA_DCP
PTVC1,ALERT STREAM GAGE  NW WILLOW BROOK A STONY POINT ROAD,38.2744,-122.6769,9,2010-12-07 00:00,CA_DCP
LHNC1,ALERT STREAM/RAIN GAGE  AT CAPRI CREEK A CASELLA WAY (LEGHORN ST,38.2689,-122.6364,17.00027,2014-12-15 00:00,CA_DCP
PCRC1,ALERT STREAM/RAIN GAGE  AT PETALUMA RIVER A CORONA ROAD,38.2617,-122.6606,6,2010-12-07 00:00,CA_DCP
PTBC1,ALERT STREAM/RAIN GAGE  AT PETALUMA RIVER A D STREET BRIDGE,38.2333,-122.6347,1,2010-12-07 00:00,CA_DCP
ALXA2,ALEXANDER LAKE SNOTEL,61.75,-150.89,48.8,2014-11-26 00:00,AK_DCP
ALGN7,Alexander Middle School,35.1669,-80.8328,200,2010-12-07 00:00,NC_DCP
ALEH1,ALEXANDER RESV,21.95,-159.5333,441.26935,2010-12-07 00:00,HI_DCP
ADSL1,ALEXANDRIA,31.25,-92.45,24,2010-12-07 00:00,LA_DCP
ALZO1,ALEXANDRIA,40.0867,-82.61,288,2008-01-07 00:00,OH_DCP
ALXN6,Alexandria Bay,44.331,-75.934,73.20586,2016-08-30 00:00,NY_DCP
ALXL1,POWER PLANT,31.3167,-92.4667,25,2010-12-07 00:00,LA_DCP
AFDN6,Alfred,42.2533,-77.7911,544.28516,2015-04-09 00:00,NY_DCP
ALDN6,Alfred,42.2289,-77.805,707,2010-12-07 00:00,NY_DCP
ADCN6,ALFRED 1NW SNOW,42.2667,-77.8,608,2010-12-08 00:00,NY_DCP
AGRM4,ALGER RAWS,44.1292,-84.1228,235,2008-10-16 00:00,MI_DCP
DNBT2,Algoa 2N - Dickinson Bayou,29.436,-95.1701,6,2023-07-05 00:00,TX_DCP
AGCM4,Algonac  MI - 9014070,42.621,-82.527,177,2008-10-17 00:00,MI_DCP
ALGM4,Algonac - St Clair River,42.6167,-82.5333,175.99304,2016-03-01 00:00,MI_DCP
GRXA1,AL GREENSBORO 2 WNW,32.7169,-87.6226,84,2010-12-07 00:00,AL_DCP
ALWC1,ALHAMBRA WASH @ KLINGERMAN,34.0561,-118.0869,77,2010-12-07 00:00,CA_DCP
HHXA1,AL HIGHLAND HOME 2 S,31.9155,-86.3115,180,2010-12-07 00:00,AL_DCP
ALI,ALICE INTL AP,27.74131,-98.02507,51.816,2013-05-14 00:00,TX_DCP
ACET2,Alice - San Diego Creek,27.7667,-98.0833,63.374294,2015-04-26 00:00,TX_DCP
AVUA1,Aliceville 10NW - Tombigbee River,33.21056,-88.28861,38.199814,2021-02-26 00:00,AL_DCP
AVLA1,Tombigbee River  AT Bevill Lock and Dam,33.21,-88.2878,40,2010-12-01 00:00,AL_DCP
BWHT2,ALIEF,29.7089,-95.5828,27,2010-12-13 00:00,TX_DCP
ALTO3,A-LINE TERMINUS NR HERMISTON,45.8136,-119.3578,164,2010-12-07 00:00,OR_DCP
ALSC1,ALISAL RESERVIOR  ALERT 555,34.55,-120.1333,218,2010-12-07 00:00,CA_DCP
ALIC1,ALISAL RESERVOIR NEAR SOLVANG,34.5488,-120.1291,208,2010-12-07 00:00,CA_DCP
ALOC1,ALISO CANYON  ALERT 302 (2ND TO ALIC1),34.3167,-118.55,651,2010-12-07 00:00,CA_DCP
WGRC1,ALISO CANYON-WAGON WHEEL RANCH,34.4158,-118.0905,1223,2010-12-07 00:00,CA_DCP
ASOC1,ALISO CREEK AT SEWAGE TREATMENT PLANT,33.5175,-117.7406,40,2010-12-07 00:00,CA_DCP
ALIA2,Alitak - NWLON,56.898,-154.247,5.9087267,2015-09-06 00:00,AK_DCP
WVVN6,Allaben - Woodland Valley,42.0667,-74.3333,298.89108,2011-01-05 00:00,NY_DCP
ALLM1,Allagash River  AT Allagash,47.0697,-69.0794,197,2010-12-07 00:00,ME_DCP
ALSM1,Allagash Snow Course,47.0711,-69.0772,193.91783,2011-01-04 00:00,ME_DCP
MAHG1,Allatoona Creek 5 SSW Mars Hill,33.9953,-84.6931,269,2010-12-07 00:00,GA_DCP
CVLG1,Lake Allatoona  AT Allatoona Dam,34.1628,-84.7278,261,2010-12-07 00:00,GA_DCP
ADTG1,ALLATOONA DAM TAILRACE,34.1639,-84.7281,254,2010-12-07 00:00,GA_DCP
ALLM4,Allegan 4SE - Kalamazoo River,42.4822,-85.7983,201,2008-12-27 00:00,MI_DCP
RHAN6,ALLEGANY STATE PARK,42.1008,-78.75,459,2010-12-03 00:00,NY_DCP
ALYC1,ALLEGHANY,39.47,-120.875,1524,2010-12-07 00:00,CA_DCP
ANFP1,ALLEGHENY NATIONAL FOREST,41.5422,-79.1267,547,2010-12-07 00:00,PA_DCP
CLNP1,Allegheny River  AT Clinton,40.7161,-79.5811,237,2010-11-05 00:00,PA_DCP
ELRP1,Allegheny River  AT Eldred,41.9667,-78.3333,576,2010-12-07 00:00,PA_DCP
FRKP1,Allegheny River  AT Franklin,41.3894,-79.8206,294,2010-12-07 00:00,PA_DCP
FREP1,Allegheny River  AT Freeport,40.6839,-79.6681,240,2010-12-07 00:00,PA_DCP
KIZP1,Allegheny River AT Kinzua,41.8333,-79.0167,629,2010-12-07 00:00,PA_DCP
KNZP1,Allegheny River  AT Kinzua Dam,41.8167,-79,619,2010-12-07 00:00,PA_DCP
KTTP1,Allegheny River  AT Kittanning,40.8183,-79.53,234,2010-08-19 00:00,PA_DCP
MOSP1,Allegheny River  AT Mosgrove,40.8944,-79.4769,242,2010-11-03 00:00,PA_DCP
PARP1,Allegheny River  AT Parker,41.1006,-79.6814,261,2010-12-07 00:00,PA_DCP
PALP1,Allegheny River  AT Port Allegany,41.8167,-78.2833,464,2010-11-01 00:00,PA_DCP
RMRP1,Allegheny River  AT Rimer,40.9561,-79.5472,257,2010-10-31 00:00,PA_DCP
SLMN6,Allegheny River  AT Salamanca,42.1167,-78.75,548,2010-12-07 00:00,NY_DCP
SHRP1,Allegheny River  AT Sharpsburg,40.4875,-79.9153,221,2010-08-18 00:00,PA_DCP
WHKP1,Allegheny River  AT West Hickory,41.5708,-79.4081,339,2010-12-07 00:00,PA_DCP
ALNO3,ALLEN CANAL NR ECHO,45.7336,-119.2042,206,2010-12-07 00:00,OR_DCP
ALKV2,Allen Creek 3.7 E Boydton-Allen Creek,36.6797,-78.3267,77,2010-12-07 00:00,VA_DCP
ALLN6,ALLEN CREEK  AT Allen Crk Rochester,43.1303,-77.5189,104.12647,2011-12-01 00:00,NY_DCP
SYPC1,Allendale 1W - Sweeny Creek,38.4432,-121.9553,39.142788,2018-12-01 00:00,CA_DCP
PUHC1,Allendale 5NW - Putah Diversion,38.4914,-122.0054,74.63897,2016-11-20 00:00,CA_DCP
ALLM6,Allen - Tallahactchie River,34.14472,-90.23,49.086433,2017-02-27 00:00,MS_DCP
ALNO1,Alliance,40.9014,-81.1172,374,2010-05-24 00:00,OH_DCP
ALCN1,ALLIANCE,42.0017,-102.9367,1233,2007-12-31 00:00,NE_DCP
AIA,ALLIANCE MUNICIPAL AIRPORT ASOS,42.05732,-102.80169,1196.34,2013-05-14 00:00,NE_DCP
ALGT2,ALLIGATOR BAYOU PS,29.8619,-93.9825,5,2010-12-07 00:00,TX_DCP
ACSF1,Alligator Creek  AT Alligator Creek at Starke,29.9369,-82.1152,61.735302,2015-10-06 00:00,FL_DCP
ALCF1,ALLIGATOR CREEK  AT Clearwater,27.9794,-82.7425,17,2010-12-07 00:00,FL_DCP
ACNF1,ALLIGATOR CREEK NEAR GARFIELD BIGHT,25.1755,-80.7916,7.1656966,2018-07-19 00:00,FL_DCP
ALLN2,ALLIGATOR RIDGE RAWS,39.7333,-115.5167,1980,2010-12-07 00:00,NV_DCP
ALFO3,ALLISON,43.9167,-119.5833,1766,2010-12-08 00:00,OR_DCP
ALIS1,ALLISON CREEK 5 NE ALLISON CRK NR YORK,35.065,-81.1383,191,2010-12-07 00:00,SC_DCP
ERHW3,Allouez 2S,44.4566,-88.0171,178,2020-10-26 00:00,WI_DCP
ALMM4,ALMA,43.3833,-84.6667,234,2008-10-16 00:00,MI_DCP
ALMW3,Mississippi River  AT Alma Dam 4,44.3271,-91.9194,225,2010-02-01 00:00,WI_DCP
ALRC1,ALMADEN RSVR,37.165,-121.8275,225,2010-12-07 00:00,CA_DCP
AMDC1,ALMADEN WATERSHED,37.1572,-121.8342,311,2010-12-07 00:00,CA_DCP
AMAC1,Almanor 1SE - Lake Almanor,40.2128,-121.1619,1373.8009,2012-03-20 00:00,CA_DCP
AMHA3,AL-MARAH,32.28,-110.8019,780,2010-12-07 00:00,AZ_DCP
ARAW1,ALMIRA HYDROMET STATION,47.7911,-118.9163,733,2010-12-07 00:00,WA_DCP
ADBN6,ALMOND LAKE DAM OPEN SNOW,42.3581,-77.7028,410,2010-12-08 00:00,NY_DCP
ADAN6,ALMOND LAKE DAM WOODED SNOW,42.3478,-77.6975,457,2010-12-08 00:00,NY_DCP
ALXC2,ALMONT,38.6644,-106.8475,2452,2010-12-07 00:00,CO_DCP
RCKI1,Almo - Rocks,42.0911,-113.6311,1628.668,2012-12-06 00:00,ID_DCP
ALOH1,Aloha Tower,21.3034,-157.8627,13.2576685,2012-03-20 00:00,HI_DCP
BLUM8,ALONG BLUFF CRK,48.8719,-106.9456,776,2010-12-07 00:00,MT_DCP
CALN1,ALONG CALAMUS RSVR,41.8272,-99.2197,688,2007-12-31 00:00,NE_DCP
LPNM4,Alpena  MI - 9075065,45.063,-83.429,177.9,2016-08-30 00:00,MI_DCP
ALPW1,ALPENTAL NWAC,47.445,-121.4239,975,2010-12-07 00:00,WA_DCP
APHC1,ALPHA,38.805,-120.215,2303,2010-12-02 00:00,CA_DCP
AFRC1,ALPHA - FORNI RIDGE,38.8039,-120.2158,2319,2010-12-07 00:00,CA_DCP
GPKI4,Alpha - Gouldsburg County Park,43.0015,-91.9691,303.981,2012-01-24 00:00,IA_DCP
ARLM2,Alpha Ridge Landfill,39.3047,-76.9019,152.87344,2011-11-21 00:00,MD_DCP
WKBW1,Alpha - Windy Knob Mountain,46.6702,-122.6126,523.336,2012-09-04 00:00,WA_DCP
ALPA1,ALPINE 1N,33.3594,-86.2342,141,2010-12-07 00:00,AL_DCP
ALPI3,West Fork of Whitewater River 2 NE Alpine,39.5736,-85.1583,234,2008-10-16 00:00,IN_DCP
DYCU1,Alpine - Dry Creek,40.45694,-111.76833,1520,2023-04-29 00:00,UT_DCP
APMC1,Alpine Meadows,39.16667,-120.23333,2144.8682,2011-06-01 00:00,CA_DCP
AMBC1,ALPINE MEADOWS-BASE,39.1628,-120.2386,2117,2010-12-07 00:00,CA_DCP
ALRA3,ALPINE RAWS,33.8425,-109.1113,2489,2010-12-07 00:00,AZ_DCP
AARA3,Alpine Repeater,33.8267,-109.1653,2872,2011-07-07 00:00,AZ_DCP
ACRW1,ALPOWA CREEK 8 W Clarkston,46.4122,-117.2133,228,2010-12-07 00:00,WA_DCP
RUXA1,AL RUSSELLVILLE 4 SSE,34.4535,-87.7104,218,2010-12-07 00:00,AL_DCP
ALSO3,ALSEA FH (FALL CREEK),44.4044,-123.7533,89,2010-12-01 00:00,OR_DCP
TIDO3,Alsea River 3 ESE Tidewater,44.3861,-123.8306,58,2010-12-07 00:00,OR_DCP
ALEA2,Alsek River At Dry Bay,59.1906,-138.3267,18.204268,2011-07-15 00:00,AK_DCP
ALSI2,Alsip - ISWS Lake Michigan,41.675,-87.75,190.24875,2016-06-20 00:00,IL_DCP
ALSN3,Alstead,43.1167,-72.2667,427.28445,2011-01-04 00:00,NH_DCP
ATRW4,ALTA - DCP,43.7561,-111.0328,1975,2010-12-07 00:00,WY_DCP
TLXA1,AL TALLADEGA 10 NNE,33.5721,-86.0573,160,2010-12-07 00:00,AL_DCP
EVRG1,Altamaha River 3 NE Everett City,31.4269,-81.6056,10,2010-12-07 00:00,GA_DCP
BAXG1,Altamaha River  AT Baxley,31.9389,-82.3536,29,2010-12-07 00:00,GA_DCP
CHRG1,Altamaha River  AT Charlotteville,31.9578,-82.5172,24,2010-12-07 00:00,GA_DCP
DCTG1,Altamaha River  AT Doctortown,31.6544,-81.8281,7,2010-12-07 00:00,GA_DCP
AATC1,ALTAMONT,37.6931,-121.6094,442,2010-12-07 00:00,CA_DCP
ATWA3,Altar Wash 22 NNW Altar Wash at Highway 286/Arivaca 22NNW,31.8339,-111.4036,910,2010-12-07 00:00,AZ_DCP
ATPA3,Altar Wash 22 NNW Three Pts/Arivaca 22NNW,31.8389,-111.4036,907,2010-12-07 00:00,AZ_DCP
DAKC1,Alta Sierra 3NNW - Cedar Creek,35.77333,-118.56667,2018.2502,2016-12-15 00:00,CA_DCP
TCAW4,Alta - Teton Creek,43.75639,-110.96583,2077.936,2016-10-14 00:00,WY_DCP
BKMN5,Alto - Buck Mountain,33.4042,-105.7822,3273.9275,2012-08-22 00:00,NM_DCP
ALNI2,Mississippi River  AT Mel Price LD,38.8833,-90.1833,120,2007-12-31 00:00,IL_DCP
MDSO1,ALTON DARBY STORMS,39.9781,-83.1708,282,2010-05-25 00:00,OH_DCP
ALTP1,ALTOONA 3SW,40.495,-78.4667,453,2010-12-01 00:00,PA_DCP
ATNI4,Altoona I-80,41.65639,-93.54694,256,2009-03-17 00:00,IA_DCP
XATC1,Alturas 9ENE,41.5147,-120.364,1617,2022-06-17 00:00,CA_DCP
ALSO2,ALTUS MESONET,34.5872,-99.3381,417,2010-12-07 00:00,OK_DCP
KLBO1,ALUM CREEK,40.35,-82.9167,292,2008-10-16 00:00,OH_DCP
CLMO1,ALUM CREEK,39.95,-82.9333,240,2008-10-16 00:00,OH_DCP
AFRO1,Alum Creek  AT Africa,40.1822,-82.9617,249,2007-12-31 00:00,OH_DCP
ACRO1,Alum Creek  AT Kilborne,40.3567,-82.9217,283,2007-12-31 00:00,OH_DCP
ALVO2,ALVA,36.8131,-98.6556,404,2010-12-08 00:00,OK_DCP
AVNW4,Alva 12NNW,44.8605,-104.5444,1265,2023-10-03 00:00,WY_DCP
AVSO2,ALVA MESONET,36.7082,-98.7097,444,2010-12-07 00:00,OK_DCP
FHWT2,Alvarado 1NNW,32.424,-97.2219,234.82513,2020-01-13 00:00,TX_DCP
MUGT2,Alvin 2NW - Mustang Bayou,29.4365,-95.2662,12,2023-07-05 00:00,TX_DCP
OCIT2,Alvin 4N - Old Chigger Creek,29.4836,-95.246,13.121163,2020-02-04 00:00,TX_DCP
RROT2,Alvin 4N - Resort Park Ditch,29.4744,-95.2459,14.954772,2020-02-04 00:00,TX_DCP
RYAC1,Alviso - Coyote Creek,37.4639,-122.0241,0,2020-06-04 00:00,CA_DCP
GUGC1,Alviso - Guagalupe River,37.4225,-121.9761,1.2755616,2014-12-13 00:00,CA_DCP
HOPW2,ALVON,37.95,-80.25,977,2010-12-07 00:00,WV_DCP
ALYW2,Alvy,39.45,-80.6833,284,2010-12-07 00:00,WV_DCP
AZDM8,Alzada,45.01,-104.42,1048.2471,2013-10-11 00:00,MT_DCP
BVWL1,Ama - Bayou Verret,29.9097,-90.2733,1.7099575,2013-09-13 00:00,LA_DCP
AMPI4,Amana - Price Creek,41.8051,-91.873,217.67685,2013-01-30 00:00,IA_DCP
ANPI4,Amana - Price Creek S-Ave,41.8454,-91.9479,234.15894,2013-01-30 00:00,IA_DCP
AMAI4,Amana - Price Creek USGS,41.805,-91.8731,217.60507,2013-10-25 00:00,IA_DCP
ATBO1,Amanda TWP Building,39.6508,-82.7439,284,2010-09-24 00:00,OH_DCP
AMDK2,Amandaville - Crocus Creek,36.89667,-85.31056,177.3148,2020-06-25 00:00,KY_DCP
TCPC1,AMARGOSA RIVER 0.2 W Amargosa River At Tecopa,35.8481,-116.2286,406,2010-12-07 00:00,CA_DCP
AMCC1,AMARGOSA RVR ABV CHINA RANCH WASH,35.7903,-116.2053,336,2010-12-07 00:00,CA_DCP
RGSN2,Amargosa Valley - Rodger Spring,36.4783,-116.3308,691.8377,2013-05-28 00:00,NV_DCP
AMNT2,Amarillo - North Canadian,35.3359,-101.8062,1016.0072,2013-10-17 00:00,TX_DCP
ANXT2,Amarillo - Northwest,35.4164,-101.9322,1017.4041,2014-05-27 00:00,TX_DCP
ASOT2,Amarillo- South,35.1127,-101.7996,1103.6971,2013-06-06 00:00,TX_DCP
PLWF1,AMAX NO 3 WELL,27.2606,-82.0064,18,2010-12-07 00:00,FL_DCP
AMAK1,AMAZON DITCH 11 WNW AMAZON DITCH NEAR LAKIN,37.89722,-101.44083,938.8738,2007-12-31 00:00,KS_DCP
ERGN6,Amber - Rice Grove,42.8486,-76.2531,245.57407,2013-01-24 00:00,NY_DCP
KAUA2,Ambler - Kaluich,67.5731,-158.4317,490,2012-09-06 00:00,AK_DCP
ABOC1,Amboy 1NE,34.5594,-115.7442,197,2022-05-16 00:00,CA_DCP
AMEO1,Amelia,39.0213,-84.2185,267.37967,2020-01-29 00:00,OH_DCP
AMEM3,AMELIA EARHART DAM,42.3956,-71.0756,5,2010-12-15 00:00,MA_DCP
FRDF1,AMELIA RIVER  AT FERNADINA BEACH TIDE,30.6717,-81.465,3,2011-01-28 00:00,FL_DCP
AMEN8,AMENIA 1N,47.0167,-97.2139,286,2007-12-31 00:00,ND_DCP
AMRL1,Amerada Pass,29.45,-91.338,5.9629188,2016-08-30 00:00,LA_DCP
ACDT2,American Canal Diversion,31.77778,-106.52639,1141.9198,2010-12-07 00:00,TX_DCP
AMCA2,AMERICAN CREEK SNOTEL,64.78969,-141.23376,320,2011-10-24 00:00,AK_DCP
AFPU1,American Fork Abv Upper Pp Qc,40.45,-111.6833,2094,2011-06-02 00:00,UT_DCP
AFOC1,AMERICAN R AT FAIR OAKS,38.6356,-121.2267,54,2010-12-07 00:00,CA_DCP
AMRW1,American River 3 NW Nile,46.9833,-121.1667,1139,2010-12-07 00:00,WA_DCP
SAMC1,American River  AT H Street Bridge,38.5689,-121.4225,13,2010-12-07 00:00,CA_DCP
AWBC1,AMERICAN RIVER BLW  WATT AVE. BRIDGE,38.5672,-121.3872,14,2010-12-07 00:00,CA_DCP
AMW,AMES MUNICIPAL AP,41.99045,-93.61852,281.3304,2010-12-28 00:00,IA_DCP
AMEO2,AMES,36.2483,-98.1883,377,2010-11-23 00:00,OK_DCP
AMWI4,Ames 1SSW - Ioway Creek at Lincoln Way,42.0225,-93.6292,278,2003-07-21 00:00,IA_DCP
AMQI4,Ames 1W - IFC Ioway Creek at Stange Rd,42.03663,-93.645,272,2011-08-11 00:00,IA_DCP
AMDI4,Ames 2SSE - IFC Ioway Creek Duff,42.01355,-93.61015,272,2011-08-11 00:00,IA_DCP
CSRI4,Ames 4NW - Ioway Creek Cameron School Rd,42.0707,-93.6726,291,2007-05-30 00:00,IA_DCP
AMOO2,Ames 4SW - Cimarron River,36.21861,-98.25444,349.51843,2021-07-25 00:00,OK_DCP
AESI4,South Skunk River 2 SSE Ames US 30,41.9625,-93.5611,263,2003-07-21 00:00,IA_DCP
AEFI4,Ames Fire Wx,42.0926,-93.571,315.16382,2015-03-13 00:00,IA_DCP
ESQI4,Ames - Ioway Creek,42.1665,-93.7531,299,2007-05-30 00:00,IA_DCP
AMMI4,AMES SCAN,42.01667,-93.73333,327.1,2012-12-19 00:00,IA_DCP
ATST2,AMHERST 1NE,34.0217,-102.4044,1107,2010-12-07 00:00,TX_DCP
101M1,Amherst 4W,44.8308,-68.4486,204.76662,2011-02-01 00:00,ME_DCP
AWWM1,AMHERST GROUND WATER WELL,44.831,-68.366,95,2010-12-07 00:00,ME_DCP
DONG1,Amicalola Creek 5 W Dawsonville,34.4256,-84.2119,398,2010-12-07 00:00,GA_DCP
AMIG1,AMICALOLA FALLS 1W,34.5458,-84.2772,547,2010-12-07 00:00,GA_DCP
AIDN8,Amidon 1N,46.488,-103.316,879,2022-05-11 00:00,ND_DCP
HBPL1,AMITE RIVER 1 NW Henderson Bayou Pump Station near Lake,30.3181,-90.8597,12.46411,2015-06-25 00:00,LA_DCP
DENL1,Amite River 3 SW Denham Springs,30.4639,-90.9903,10,2010-12-07 00:00,LA_DCP
HENL1,AMITE RIVER 3 SW Henderson Bayou near Port Vincent,30.2972,-90.8836,9,2010-12-07 00:00,LA_DCP
MAGL1,Amite River 4 NNW Magnolia,30.5347,-90.9806,18,2010-12-07 00:00,LA_DCP
DARL1,Amite River 4 WNW Darlington,30.8889,-90.8444,49,2010-12-07 00:00,LA_DCP
DCBL1,AMITE RIVER 6 SW Dawson Creek/Bluebonnet Blvd near Baton Rouge,30.3822,-91.0942,11,2010-12-07 00:00,LA_DCP
BYML1,Bayou Manchac Point,30.34778,-90.89694,13.109001,2010-12-28 00:00,LA_DCP
BBHL1,Amite River  AT Beaver Bayou at Hooper Rd near Baton Rouge,30.5608,-91.0208,25.92969,2014-05-09 00:00,LA_DCP
FSLL1,Amite River  AT French Settlement,30.2753,-90.7792,3,2010-12-07 00:00,LA_DCP
GVLL1,Amite River  AT Grangeville,30.7361,-90.8417,35,2010-12-07 00:00,LA_DCP
MAUL1,Amite River  AT Maurepas,30.3092,-90.6103,11,2010-12-07 00:00,LA_DCP
PVLL1,Amite River  AT Port Vincent,30.3325,-90.8519,8,2010-12-07 00:00,LA_DCP
ACAC2,AMITY CANAL,38.09833,-103.25,1130,2010-12-07 00:00,CO_DCP
BETN3,Ammonoosuc River  AT Bethlehem,44.2667,-71.6333,372,2010-12-07 00:00,NH_DCP
MNUC2,AMRAD,39.0514,-104.8372,2105,2010-12-16 00:00,CO_DCP
CNNC2,AMRAD,38.4333,-105.2667,1675,2010-12-08 00:00,CO_DCP
AMDO1,AMSTERDAM,40.4753,-80.9244,287,2007-12-31 00:00,OH_DCP
AMDN6,Amsterdam - Mohawk River,42.93389,-74.19167,72.80336,2016-11-22 00:00,NY_DCP
MAJC1,Amsterdam Road - Merced River,37.46806,-120.54167,55.419376,2018-04-01 00:00,CA_DCP
AMYP1,AMWELL,40.055,-80.2094,395,2010-12-07 00:00,PA_DCP
ANIC1,ANACAPA ISLAND,34.0158,-119.3597,70.8719,2010-12-07 00:00,CA_DCP
ARWO2,Anadarko 3SSE - Indian City RAWS,35.03639,-98.2325,404,2022-07-17 00:00,OK_DCP
ABBC1,ANAHEIM BARBER CITY ALERT #1117,33.7544,-118.0344,8,2010-12-13 00:00,CA_DCP
ANHH1,Anahola,22.1374,-159.3122,78.13153,2012-03-20 00:00,HI_DCP
ANAA3,ANAMAX,31.8786,-111.0503,1102,2010-12-07 00:00,AZ_DCP
ANMI4,ANAMOSA,42.1,-91.3,240,2008-04-25 00:00,IA_DCP
APAM2,Anapolis -  8575512,38.983,-76.479,-0.3760946,2011-11-27 00:00,MD_DCP
OAAC1,Anapolis - Oak Ridge RAWS,38.73333,-123.28972,717.8525,2016-10-18 00:00,CA_DCP
WPAA2,Anchorage 3SE - Waldron Pond,61.1781,-149.8508,45,2018-01-05 00:00,AK_DCP
ARCA2,Anchorage - Artic Valley,61.2453,-149.5189,883,2011-10-24 00:00,AK_DCP
GAHA2,Anchorage - Glen Alps,61.09972,-149.69404,537.0579,2010-12-16 00:00,AK_DCP
HILA2,ANCHORAGE HILLSIDE SNOTEL,61.11483,-149.66683,634,2011-05-20 00:00,AK_DCP
LHIA2,Anchorage Lake Hood Ice,61.18,-149.9719,21.000008,2011-11-18 00:00,AK_DCP
EPYA2,Anchorage - Mobile Deploy 2,61.175,-149.9933,27.263046,2012-01-23 00:00,AK_DCP
SERA2,Anchorage - Seattle Ridge,60.8332,-149.1602,617.2596,2010-12-16 00:00,AK_DCP
TSAA2,Anchorage - Test Platform A,61.1561,-149.9839,40,2013-06-14 00:00,AK_DCP
ANCW4,Anchor Reservoir Near Thermopolis 30W,43.66389,-108.82417,1922.5802,2011-04-15 00:00,WY_DCP
APBA2,ANCHOR RIVER 1 SSW Anchor River at Anchor Point,59.7722,-151.8363,9,2010-12-16 00:00,AK_DCP
APTA2,ANCHOR RIVER 4 SE Anchor River at New Sterling Hwy,59.7472,-151.7531,52.88355,2010-12-07 00:00,AK_DCP
ELFF1,Anclote River 4 E Elfers,28.2139,-82.6667,15,2010-12-07 00:00,FL_DCP
QBAC1,Andersen Res - Coyote Creek,37.16472,-121.63222,128,2023-03-03 00:00,CA_DCP
ANDT1,ANDERSON,35.0028,-85.8972,198,2010-12-07 00:00,TN_DCP
ANDM7,ANDERSON,36.65,-94.44,320,,MO_DCP
AND,ANDERSON COUNTY AIRPORT,34.495,-82.7092,228,2010-12-14 00:00,SC_DCP
MDRO1,ANDERSON ELEMENTARY,39.1611,-84.4036,165,2010-05-24 00:00,OH_DCP
HWLS1,Anderson - Hartwell Lake,34.475,-82.8161,206.21106,2012-07-09 00:00,SC_DCP
ANPC1,ANDERSON PEAK,36.1845,-121.6466,1093,2010-12-07 00:00,CA_DCP
ANDW4,ANDERSON RIDGE RAWS,42.4372,-108.9408,2477,2010-12-07 00:00,WY_DCP
ANDC1,ANDERSON RSVR,37.1656,-121.6283,180,2010-12-08 00:00,CA_DCP
ANQC1,Anderson - Sacramento River,40.4713,-122.2953,129.3159,2016-07-07 00:00,CA_DCP
ADNI3,White River  AT Raible Avenue In Anderson,40.1122,-85.7175,253,2008-10-16 00:00,IN_DCP
ANLO1,Andersonville,39.4403,-83.0292,220,2010-05-25 00:00,OH_DCP
ADVM1,Andover,44.6389,-70.7417,216,2022-12-20 00:00,ME_DCP
ADEO1,ANDOVER,41.65,-80.5667,335,2007-12-31 00:00,OH_DCP
ANDM1,ANDOVER 2,44.6531,-70.7947,254,2010-11-09 00:00,ME_DCP
ADOM1,Andover - NEPP Site,44.65305,-70.79416,252.60909,2013-09-19 00:00,ME_DCP
ADSS1,Andre,33.45167,-79.555,6,2022-09-09 00:00,SC_DCP
ANRC1,ANDREAS CREEK 5 S ANDREAS CK,33.76,-116.5492,248,2010-12-07 00:00,CA_DCP
AMSC1,ANDREW MOLERA,36.2844,-121.8411,52,2010-12-07 00:00,CA_DCP
WLHS1,ANDREW PICKENS RAWS,34.8084,-83.1278,511,2010-12-07 00:00,SC_DCP
AWST2,ANDREWS 2E,32.32,-102.5194,958,2010-12-07 00:00,TX_DCP
ADRS1,Andrews - Black River,33.49028,-79.54583,3.8580158,2017-05-31 00:00,SC_DCP
ACMW1,ANDREWS CREEK  AT MAZAMA,48.82306,-120.14472,1344.0405,2012-02-29 00:00,WA_DCP
GLFM1,ANDROSCOGGIN  AT GULF ISLAND DAM,44.1503,-70.2094,77,2010-12-07 00:00,ME_DCP
AUBM1,Androscoggin River  AT Auburn,44.1228,-70.2086,62,2010-12-07 00:00,ME_DCP
ERRN3,ANDROSCOGGIN RIVER  AT ERROL,44.7825,-71.1294,381,2010-12-07 00:00,NH_DCP
GRMN3,Androscoggin River  AT Gorham,44.4361,-71.1908,261,2010-12-07 00:00,NH_DCP
RMFM1,Androscoggin River  AT Rumford,44.55,-70.55,155,2010-12-07 00:00,ME_DCP
AGLA2,ANGEL CREEK RAWS,65.02,-146.2281,306,2010-12-07 00:00,AK_DCP
AGLC1,ANGELES HILL  ALERT 878,33.8,-116.85,1060,2010-12-07 00:00,CA_DCP
ALOT2,Angelina River 8 E Alto,31.6694,-94.9567,77,2010-12-07 00:00,TX_DCP
LUFT2,Angelina River 8 N Lufkin,31.45,-94.75,84,2010-12-30 00:00,TX_DCP
AISC1,Angel Island,37.85,-122.4167,-28.376713,2011-03-09 00:00,CA_DCP
ANOW3,Angelo,43.9672,-90.765,242.68797,2012-01-23 00:00,WI_DCP
ZOLO3,Angel - Zollner Creek,45.10056,-122.82056,49.00118,2016-11-17 00:00,OR_DCP
OYAT2,Angleton 6NNW - Oyster Creek,29.25361,-95.50833,13.501305,2020-10-02 00:00,TX_DCP
OYBT2,Angleton - Oyster Creek ,29.12528,-95.48111,12.001135,2020-10-02 00:00,TX_DCP
ANGN1,ANGORA 8 NE,41.93,-103.02,1264,,NE_DCP
AWNC1,Angwin - Pacific Union College,38.57111,-122.43333,560,2022-11-17 00:00,CA_DCP
ANGC1,ANGWIN PACIFIC UNION COLLEGE,38.573,-122.4405,547,2010-12-07 00:00,CA_DCP
KRIA2,Aniak 2E - Kuskokwim River,61.5873,-159.4705,20,2021-03-02 00:00,AK_DCP
AMBA2,ANIAK SCAN,61.58337,-159.57708,80,2011-05-20 00:00,AK_DCP
AZRN5,ANIMAS RIVER 1 WSW Aztec,36.8183,-108.0191,1700,2010-12-07 00:00,NM_DCP
DRGC2,Animas River  AT Durango,37.2792,-107.8797,1988,2010-12-07 00:00,CO_DCP
ARFN5,Animas River  AT Farmington,36.7214,-108.2014,1612,2010-12-07 00:00,NM_DCP
HWDC2,ANIMAS RIVER AT HOWARDSVILLE,37.8331,-107.5989,2939,2010-12-07 00:00,CO_DCP
ANMC2,ANIMAS RIVER AT SILVERTON,37.8111,-107.6586,2837,2010-12-07 00:00,CO_DCP
ATTC2,ANIMAS RIVER AT TALL TIMBER RESORT ABOVE,37.5667,-107.775,2452,2010-12-07 00:00,CO_DCP
ANBC2,ANIMAS RIVER BELOW SILVERTON,37.7903,-107.6669,2836,2010-12-07 00:00,CO_DCP
DGOC2,ANIMAS RIVER BLW DURANGO PUMP PLANT,37.2492,-107.8725,1967,2010-12-07 00:00,CO_DCP
FMBI4,Ankeny 2 SE,41.7,-93.5833,269,2009-03-17 00:00,IA_DCP
ANQN6,Annandale,42.03,-73.93,8,2010-12-07 00:00,NY_DCP
ANAP1,ANNANDALE,41.0836,-79.8789,455,2010-12-07 00:00,PA_DCP
HUQN6,Annandale - Hudson River,42.0364,-73.9253,-1.8806908,2010-12-07 00:00,NY_DCP
NAK,ANNAPOLIS UNITED STATES NAVAL ACADEMY ASOS,38.9913,-76.4891,1.8288,2013-05-14 00:00,MD_DCP
GSRC1,Annapolis 3WSW - SF Gualala River,38.7092,-123.4256,37.90339,2018-11-30 00:00,CA_DCP
FDWT2,Annetta 3SE,32.6722,-97.6487,284.94482,2020-01-13 00:00,TX_DCP
ANNS2,Annie Creek 6 SW Lead,44.3269,-103.8939,1586,2008-01-03 00:00,SD_DCP
ACLO3,Annie Spring Near Crater Lake Near Fort Klamath 14Nw,42.87167,-122.16778,1840.3008,2011-04-08 00:00,OR_DCP
ANNA1,Anniston - AL Power Co,33.5667,-85.9,187.59866,2012-03-20 00:00,AL_DCP
NONT2,ANNONA 1 NW,33.5872,-94.935,118,2010-12-07 00:00,TX_DCP
ANSP1,Ansonville,40.85,-78.55,503,2010-12-07 00:00,PA_DCP
PWRN7,Ansonville - Pee Dee Refuge,35.1094,-80.0642,71.84564,2012-05-03 00:00,NC_DCP
MATA3,ANTARES,35.4189,-113.8086,1083,2010-12-07 00:00,AZ_DCP
MUCA3,Antares 9N - Music Mountains,35.5542,-113.8261,1010.7838,2018-06-26 00:00,AZ_DCP
ALRN2,ANTELONE LAKE RAWS,41.6833,-116.7667,1614,2010-12-07 00:00,NV_DCP
XLPC1,Antelope 1N - Lake Placid,38.7235,-121.3669,33,2022-10-27 00:00,CA_DCP
AACC1,ANTELOPE ACRES,34.7547,-118.287,739,2010-12-07 00:00,CA_DCP
DWGN8,Antelope Creek 1NE AT Dwight,46.3117,-96.7342,288,2008-01-01 00:00,ND_DCP
LNCN1,Antelope Creek 4 SE Holmes Lake,40.7833,-96.6333,381,2007-12-31 00:00,NE_DCP
CRSN8,Antelope Creek 9 NW Carson,46.5453,-101.645,605,2008-10-16 00:00,ND_DCP
LATN1,Antelope Creek  AT Lincoln (27th Street),40.8047,-96.685,356.297,2012-06-21 00:00,NE_DCP
EPTO3,ANTELOPE CREEK NR EAGLE POINT,42.4556,-122.8267,383,2010-12-07 00:00,OR_DCP
ANWC1,ANTELOPE CREEK WASH,34.4,-117.28,966,2010-12-08 00:00,CA_DCP
ACDO3,ANTELOPE DIV DAM,42.4111,-122.7433,469,2010-12-07 00:00,OR_DCP
ANTC1,ANTELOPE LAKE,40.18,-120.6069,1520,2010-12-07 00:00,CA_DCP
ATRS2,Antelope Range (Sdsu),45.52,-103.28,890.90765,2008-10-15 00:00,SD_DCP
ATFO3,ANTELOPE RAWS,44.0397,-118.4164,1928,2010-12-07 00:00,OR_DCP
LMRM8,ANTELOPE RAWS,44.6867,-112.5417,2051,2010-12-07 00:00,MT_DCP
ANFC1,Antelope River Trailrace,40.17972,-120.60861,1531.2124,2019-04-22 00:00,CA_DCP
ASPO2,ANTELOPE SPRING,34.5044,-96.9408,344,2010-12-07 00:00,OK_DCP
SKCA3,ANTHEM 4S - SKUNK CREEK AT CAREFREE HWY,33.7985,-112.1231,512,2023-03-31 00:00,AZ_DCP
NNRA3,ANTHEM 6SSW - NEW RIVER AT LOOP 303,33.7792,-112.2245,455,2023-03-31 00:00,AZ_DCP
ANYK1,ANTHONY,37.155,-98.0282,422,2004-01-01 00:00,KS_DCP
ANTK1,Anthony 7SW,37.0647,-98.0847,421,2022-12-11 00:00,KS_DCP
ANYW2,ANTHONY CREEK  AT ANTHONY CREEK SG IFLOWS,37.9203,-80.2267,592,2010-12-07 00:00,WV_DCP
SACM2,Antietam Creek  AT Sharpsburg,39.4503,-77.7311,109,2010-12-07 00:00,MD_DCP
WANP1,Antietam Creek  AT Waynesboro,39.7164,-77.6078,179,2010-12-07 00:00,PA_DCP
ANBM2,ANTIETAM NATIONAL BATTLEFIELD,39.475,-77.7556,145,2010-12-07 00:00,MD_DCP
AGOW3,ANTIGO 2NE,45.1589,-89.1147,459,2007-12-31 00:00,WI_DCP
AOHO1,Antioch,39.6556,-81.0778,295,2010-09-25 00:00,OH_DCP
FCTC1,Antioch 10NE - Fishermans Cut,38.0678,-121.6488,-1.6087667,2018-12-01 00:00,CA_DCP
RDEC1,Antioch 1SE - Roddy Ranch,37.9903,-121.7857,28.531916,2015-09-08 00:00,CA_DCP
ANCI2,Antioch - Channel Lake,42.4719,-88.1469,229.55331,2010-12-05 00:00,IL_DCP
EMMC1,Antioch - Emmation,38.0831,-121.7389,-3.9510033,2015-09-23 00:00,CA_DCP
AAKA2,ANTLER RIVER 32 NW Antler River nr Auke Bay,58.8519,-134.7086,51,2012-03-30 00:00,AK_DCP
ATRO2,ANTLERS,34.2578,-95.6458,169,2010-12-18 00:00,OK_DCP
ANEA4,ANTOINE RIVER  AT Antoine,34.0389,-93.4181,85,2010-12-07 00:00,AR_DCP
AOST2,ANTON 6S,33.7253,-102.1908,1041,2010-12-07 00:00,TX_DCP
ANTO1,Antwerp - Maumee River,41.1989,-84.7444,220.42012,2020-03-03 00:00,OH_DCP
NZAC1,ANZA 2NW,33.5558,-116.6744,1210,2010-12-07 00:00,CA_DCP
THNC1,Anza 4N - Thomas Mountain,33.61889,-116.68083,2067.0562,2018-08-29 00:00,CA_DCP
KWYC1,Anza 5NE - Kenworthy,33.61694,-116.62194,1391.4679,2017-12-19 00:00,CA_DCP
GNTN5,Anzac,35.0739,-107.75,1913.1462,2012-01-22 00:00,NM_DCP
APBA3,Apache Butte,33.92917,-109.66667,2940.9958,2017-03-24 00:00,AZ_DCP
APAC1,APACHE CANYON ALERT #523,34.7667,-119.3333,1295,2010-12-07 00:00,CA_DCP
CARA3,APACHE JUNCTION 11SSE - CARNEY SPRINGS,33.3857,-111.3634,671,2023-03-31 00:00,AZ_DCP
SDRA3,APACHE JUNCTION 3SE - SIPHON DRAW AT US 60,33.3853,-111.4987,516,2023-03-31 00:00,AZ_DCP
MDRA3,APACHE JUNCTION 4NNW - MCDOWELL ROAD AT MERIDIAN ROAD,33.4656,-111.5775,583,2023-03-31 00:00,AZ_DCP
GOLA3,APACHE JUNCTION 5SSE - US 60 AT GOLD CANYON,33.3648,-111.4758,531,2023-03-31 00:00,AZ_DCP
APJA3,APACHE JUNCTION FRS,33.4411,-111.5519,548,2010-12-16 00:00,AZ_DCP
AJUA3,Stewart Mountain,33.5575,-111.5358,433,2011-06-14 00:00,AZ_DCP
WWBA3,Apache Junction - Weekes Wash,33.3789,-111.5375,494.00116,2011-01-06 00:00,AZ_DCP
APSO2,APACHE MESONET,34.9142,-98.2922,448,2010-12-07 00:00,OK_DCP
ZATA3,APACHE TRAIL,33.4283,-111.5253,558,2010-12-16 00:00,AZ_DCP
DACG1,Apalachee River 2 N Dacula,34.0103,-83.8942,294,2010-12-07 00:00,GA_DCP
BWKG1,Apalachee River 4 NE Bostwick,33.7881,-83.4742,182,2010-12-07 00:00,GA_DCP
HADT1,Apalachia Dam,35.16819,-84.29799,362.5838,2022-10-27 00:00,TN_DCP
TURT1,APALACHIA DAM PWR HSE HIWASSEE RVR,35.1828,-84.4383,278,2010-12-07 00:00,TN_DCP
APSF1,Apalachicola 2NW - Little Saint Marks,29.7556,-85.0035,0,2023-04-01 00:00,FL_DCP
SGPF1,APALACHICOLA 9SSW - PILOT'S COVE IN APALACHICOLA BAY,29.6013,-85.0277,0,2023-04-01 00:00,FL_DCP
ADBF1,Apalachicola Dry Bar,29.6747,-85.0583,-2,2021-10-12 00:00,FL_DCP
BLOF1,Apalachicola River 1 AT Blountstown,30.425,-85.1352,37,2010-12-07 00:00,FL_DCP
WAHF1,Apalachicola River 4 ENE Wewahitchka - Mile 44,30.1339,-85.1442,19,2010-12-07 00:00,FL_DCP
SMAF1,Apalachicola River 5 SW Sumatra,29.9492,-85.0156,12,2010-12-07 00:00,FL_DCP
CHAF1,Apalachicola River  AT Chattahoochee,30.7008,-84.8592,16,2010-12-07 00:00,FL_DCP
WDRF1,Apalachicola River  AT Woodruff L&D,30.7052,-84.878,34,2010-12-07 00:00,FL_DCP
AGRC2,APISHAPA RVR,37.3175,-104.9519,2647,2010-12-10 00:00,CO_DCP
APSC2,APISHAPA SNOTEL,37.33062,-105.06749,3048,2016-10-29 00:00,CO_DCP
APEI4,Aplington - Drainage Ditch,42.57766,-92.84718,289.92722,2016-08-09 00:00,IA_DCP
APWI4,Aplington - Gran Creek,42.58521,-92.91806,307.56366,2016-08-09 00:00,IA_DCP
APBF1,Apollo Beach 1SE,27.7652,-82.3938,4.499754,2020-02-24 00:00,FL_DCP
GCTF1,Apollo Beach 5W - Gadsden Cut,27.7735,-82.5169,-5.775321,2018-08-08 00:00,FL_DCP
POPF1,APOPKA 3SW - nan,28.6422,-81.5492,35,2023-04-01 00:00,FL_DCP
APOF1,APOPKA-BEAUCLAIR CANAL BELOW DAM,28.72222,-81.685,24,2010-12-07 00:00,FL_DCP
ABEF1,APOPKA BEAUCLAIR CANAL BLO DAM,28.7228,-81.685,24,2010-12-07 00:00,FL_DCP
APLV2,APPALACHIA,36.9,-82.7833,508,2010-12-07 00:00,VA_DCP
LMJT2,Appleby 4NW - Lumberjack RAWS,31.7592,-94.6581,152.83481,2012-01-05 00:00,TX_DCP
MENN8,Apple Creek 6W AT Menoken,46.8,-100.65,504,2008-10-16 00:00,ND_DCP
APRO3,Applegate River 2 SE Applegate,42.25,-123.1333,553,2010-12-07 00:00,OR_DCP
ARWO3,Applegate River 4 SSE Wilderville,42.35,-123.4,319,2010-12-07 00:00,OR_DCP
APLO3,APPLEGATE RIVER  AT APPLEGATE RES,42.0833,-123.1333,1158,2010-12-07 00:00,OR_DCP
APPO3,APPLEGATE RIVER  AT APPLEGATE RES,42.0667,-123.1167,637,2010-12-07 00:00,OR_DCP
APRI2,Apple River  AT Hanover,42.25,-90.2833,186.5895,2012-01-24 00:00,IL_DCP
SOMW3,APPLE RIVER  AT Somerset,45.15,-92.7167,0,2011-06-07 00:00,WI_DCP
DRYW3,APPLETON-4 SE DARBOY,44.2497,-88.3278,231,2008-12-04 00:00,WI_DCP
APOC1,Apple Valley,34.4682,-117.1546,922.3204,2016-08-03 00:00,CA_DCP
PPVC1,Apple Valley Airport,34.573,-117.19,907.24365,2015-06-06 00:00,CA_DCP
JOHC1,Apple Valley - Johnson Valley,34.3672,-116.6128,902.0665,2015-06-06 00:00,CA_DCP
MNBV2,Appomattox River 5 NNE Appomattox River at Route 602 Near Mannbo,37.3181,-77.8017,64.105156,2014-09-19 00:00,VA_DCP
FRMV2,Appomattox River  AT Farmville,37.3,-78.3833,122,2010-12-07 00:00,VA_DCP
MTCV2,Appomattox River  AT Matoaca,37.2253,-77.4753,28,2010-12-07 00:00,VA_DCP
MTXV2,Appomattox River  AT Mattoax,37.4167,-77.8667,68,2010-12-07 00:00,VA_DCP
APTC1,Aptos - Rider Road,37.036,-121.854,350.24866,2014-12-11 00:00,CA_DCP
OTMA3,Aqua Caliente - Oatman RAWS,33.05,-113.1386,506.04523,2012-06-12 00:00,AZ_DCP
ACRU1,AQUA CANYON RAWS,37.5,-112.25,2367,2010-12-07 00:00,UT_DCP
AQCC1,AQUA CHINON WASH NEAR IRVINE,33.6789,-117.7133,143,2010-12-07 00:00,CA_DCP
PRTP1,AQUASHICOLA CRK,40.8061,-75.5983,123,2010-12-07 00:00,PA_DCP
GACV2,Aquia Creek  AT Garrisonville,38.4902,-77.4338,47,2010-12-07 00:00,VA_DCP
EERA3,Aquila - Eagle Eye Road,33.5839,-113.3003,426.20267,2011-01-01 00:00,AZ_DCP
ALAT2,Aquilla Creek  AT Aquilla Lake,31.8997,-97.2025,163,2010-12-07 00:00,TX_DCP
AQAT2,AQUILLA CREEK BLW DAM,31.8953,-97.2028,154,2010-12-07 00:00,TX_DCP
ESEN6,ARABIA SNOW,42.3,-75.05,653,2010-12-07 00:00,NY_DCP
AGNW4,Aragon Ditch near Morton,43.19194,-108.78417,1663,2011-08-09 00:00,WY_DCP
ARAU1,ARAGONITE RAWS,40.5983,-113.0217,1560,2010-12-07 00:00,UT_DCP
AFWT2,ARANSAS NWR RAWS,28.3044,-96.8233,9,2010-12-07 00:00,TX_DCP
SKMT2,Aransas River 4 AT Skidmore,28.2822,-97.6206,35,2010-12-07 00:00,TX_DCP
AWRT2,Aransas Wildlife Refuge -  8774230,28.227,-96.796,2.4236767,2016-08-30 00:00,TX_DCP
AHOC2,Arapahoe 12S,38.6842,-102.1611,0,2010-11-30 00:00,CO_DCP
ASWW4,Arapahoe School,42.96417,-108.49333,1533.5001,2016-08-12 00:00,WY_DCP
SHPW4,Arapahoe - Sharpnose RAWS,42.9489,-108.6108,1688.7205,2015-05-18 00:00,WY_DCP
ARPC2,ARAPAHO RIDGE SNOTEL,40.35098,-106.38142,3340.6,2016-10-31 00:00,CO_DCP
ARRN7,ARARAT RIVER 8 AT ARARAT R. AT ARARAT,36.4044,-80.5619,283,2010-12-07 00:00,NC_DCP
LTQC1,Arastradero Road (LTAA),37.3831,-122.1929,117.661674,2018-12-01 00:00,CA_DCP
ARVA3,Aravaipa Creek 9 N Aravaipa Creek near Mammoth,32.8436,-110.6186,730,2010-12-07 00:00,AZ_DCP
PLIC1,ARBUCKLE BASIN RAWS,40.3983,-122.8333,773,2010-12-07 00:00,CA_DCP
ARCN6,Arcade,42.5347,-78.4575,436.85657,2016-05-11 00:00,NY_DCP
AFLF1,Arcadia,27.22,-81.8381,20,2023-04-01 00:00,FL_DCP
LIMF1,Arcadia 13E - Long Island Marsh,27.2091,-81.6561,27.127575,2020-02-25 00:00,FL_DCP
ARXC1,Arcadia 1N,34.1578,-118.0347,188.72853,2019-02-26 00:00,CA_DCP
JOSF1,Arcadia 5ESE - Romp Well 16,27.1875,-81.7742,20.496984,2020-02-25 00:00,FL_DCP
RGCS1,ARCADIA LAKES 2SSE - GILLS CREEK,34.0247,-80.9463,60,2023-04-01 00:00,SC_DCP
ARAC1,ARCADIA WASH @ GRAND ALERT #355,34.0958,-118.0331,97,2010-12-07 00:00,CA_DCP
HCAF1,Archbold 3S - Romp 14,27.1497,-81.3538,46.369354,2020-02-25 00:00,FL_DCP
ABDF1,ARCHBOLD CRN,27.1525,-81.3689,47,2010-12-07 00:00,FL_DCP
AHTW2,Archer Heights,40.3675,-80.59,378,2010-12-07 00:00,WV_DCP
MAWA3,ARCHIBALD WASH 9 NNE Archibald Wash,35.6983,-114.1732,971,2010-12-07 00:00,AZ_DCP
TCKF1,Archie Creek 7 NNE Temple Terrace,28.1389,-82.3639,25,2010-12-07 00:00,FL_DCP
CRTI1,ARCO 17SW,43.4619,-113.5597,1799,2010-12-07 00:00,ID_DCP
ASUI1,Arco At Sunset Road,43.6381,-113.3263,1626.1012,,ID_DCP
ACRI1,ARCO RAWS,43.6167,-113.3833,1649,2010-12-07 00:00,ID_DCP
LSAA3,ARCOSANTI 2SSE - LOWER SYCAMORE CREEK,34.3242,-112.0683,1070,2023-04-19 00:00,AZ_DCP
FBAN7,Arden 3WSW - French Broad River,35.4816,-82.5576,632,2019-09-05 00:00,NC_DCP
AROP4,Arecibo - AROP4,18.48,-66.702,-6,2016-08-30 00:00,PR_DCP
ANVC1,Arena Cove,38.915,-123.711,3.2625499,2016-08-30 00:00,CA_DCP
ANUC1,Argonaut Dam,38.35361,-120.79028,462.64612,2015-12-02 00:00,CA_DCP
ZCHA3,ARIAONA AVE EMF,33.1814,-111.8639,366,2010-12-27 00:00,AZ_DCP
ARIN6,Arietta,43.2444,-74.5167,518.956,2011-01-31 00:00,NY_DCP
HAIN1,Arikaree River  AT Haigler,40.0136,-101.9408,1001,2007-12-31 00:00,NE_DCP
ARAF1,Aripeka 3SE - Engle Park,28.3936,-82.6253,14.802388,2020-02-25 00:00,FL_DCP
ARIW2,Arista,37.4942,-81.2458,957,2010-12-07 00:00,WV_DCP
AVLA3,Arivaca,31.5331,-111.2547,1164.4459,2012-08-11 00:00,AZ_DCP
ARAA3,ARIVACA NR AMADO MINE,31.6056,-111.3403,1182,2010-12-07 00:00,AZ_DCP
AYDA3,Arizona City Yard,32.7628,-111.6519,458.06375,2014-03-07 00:00,AZ_DCP
MTEA3,Arizona State University,33.4125,-111.9308,357,2011-07-07 00:00,AZ_DCP
ARJK2,Arjay,36.8167,-83.65,416,2010-12-07 00:00,KY_DCP
ARKM6,COLDWATER RIVER 3 N ARKABUTLA DAM,34.7573,-90.1243,65,2010-12-07 00:00,MS_DCP
ARTM6,Arkabutla Lake Outlet,34.75833,-90.12639,57.70009,2017-01-31 00:00,MS_DCP
WIFK1,Arkansas Floodway  AT Wichita Floodway,37.7161,-97.4019,403,2007-12-31 00:00,KS_DCP
ACGA4,ARKANSAS POST CANAL  AT AR Post Cananl Lock #2,34.0263,-91.2466,56,2010-12-07 00:00,AR_DCP
RSKO2,ARKANSAS RIVER 0 AT ARKANSAS RIVER BELOW R.S. KERR RESERVOIR,35.3506,-94.7722,123,2011-05-17 00:00,OK_DCP
DARA4,Arkansas River 1 NE Dardanelle 1 NE,35.2253,-93.1547,97,2010-12-09 00:00,AR_DCP
LMAC2,Arkansas River 1 N Lamar,38.1,-102.6167,1104,2010-12-07 00:00,CO_DCP
SALC2,Arkansas River 1 NW Salida,38.5458,-106.01,2154,2010-12-07 00:00,CO_DCP
COOK1,Arkansas River 1 S Coolidge,38.0328,-102.0142,1018,2008-01-02 00:00,KS_DCP
NPTC2,Arkansas River 1 SE Nepesta,38.1842,-104.1728,1339,2010-12-07 00:00,CO_DCP
SYRK1,Arkansas River 1 S Syracuse 1S,37.9661,-101.7547,982,2007-12-31 00:00,KS_DCP
TLSO2,Arkansas River 1 SW Tulsa,36.1405,-96.0061,191,2010-12-07 00:00,OK_DCP
MORA4,Arkansas River 1 W Morrilton,35.1275,-92.7319,98,2010-12-07 00:00,AR_DCP
MULK1,Arkansas River 1 W Mulvane,37.4756,-97.2611,379,2008-10-20 00:00,KS_DCP
NICK1,Arkansas River 1 W Nickerson,38.145,-98.1108,490,2007-12-31 00:00,KS_DCP
DDCK1,Arkansas River 1 WSW Dodge City,37.7475,-100.0322,762,2007-12-31 00:00,KS_DCP
HSKO2,Arkansas River 2 E Haskell,35.8208,-95.6386,170,2010-12-07 00:00,OK_DCP
OZGA4,Arkansas River 2 ESE Ozark Lock and Dam,35.4725,-93.8128,139,2010-12-06 00:00,AR_DCP
ARCC2,Arkansas River 2 NE Rocky Ford,38.0644,-103.6903,1262,2010-12-07 00:00,CO_DCP
WSVC2,Arkansas River 2 NW Wellsville,38.5025,-105.9392,2115,2010-12-07 00:00,CO_DCP
HAVK1,Arkansas River 3 N Haven,37.9464,-97.7747,452,2007-12-31 00:00,KS_DCP
ICTK1,Arkansas River 3 S Wichita,37.6447,-97.335,395,2007-12-31 00:00,KS_DCP
ADLC2,Arkansas River 3 W Avondale,38.2481,-104.3986,1379,2010-12-07 00:00,CO_DCP
LEDC2,Arkansas River 3 W Leadville,39.2572,-106.3431,2972,2010-12-07 00:00,CO_DCP
WICK1,Arkansas River 4 E Maize,37.7814,-97.3925,404,2007-12-31 00:00,KS_DCP
MKGO2,Arkansas River 4 ENE Muskogee,35.7694,-95.2986,159,2010-12-07 00:00,OK_DCP
PFAA4,Arkansas River 4 NW Pendleton,33.9769,-91.3842,55,2010-12-07 00:00,AR_DCP
PBFA4,Arkansas River 5NNE AT Pine Bluff,34.2833,-92,66,2010-12-07 00:00,AR_DCP
LRDK1,ARKANSAS RIVER 6 ENE LARNED 6ENE,38.2036,-99.0019,603,2007-12-31 00:00,KS_DCP
TODA4,Arkansas River 6 W Toad Suck Lock And Dam Tailwater,35.0833,-92.5333,96,2010-12-06 00:00,AR_DCP
MAYO2,ARKANSAS RIVER 7 NNE WD MAYO L&D 14,35.3144,-94.5591,127,2010-12-06 00:00,OK_DCP
PDAC2,Arkansas River 7 W Pueblo,38.2717,-104.7175,1450,2010-12-07 00:00,CO_DCP
PCYO2,Arkansas River 8 E Ponca City,36.7,-96.9333,331,2010-12-07 00:00,OK_DCP
KERO2,ARKANSAS RIVER 8 S RS KERR L&D 15,35.3491,-94.7786,132,2010-12-06 00:00,OK_DCP
KEYO2,ARKANSAS RIVER 8 W KEYSTONE LAKE,36.1513,-96.2513,221,2010-12-06 00:00,OK_DCP
ARCK1,Arkansas River  AT Arkansas City,37.05,-97.0667,333,2007-12-31 00:00,KS_DCP
MOLA4,ARKANSAS RIVER  AT Arkansas River at Morrilton L&D #9,35.1167,-92.7833,103,2010-12-06 00:00,AR_DCP
BARA4,ARKANSAS RIVER  AT BARLING L&D 13,35.3488,-94.2983,123,2010-12-06 00:00,AR_DCP
CNCC2,Arkansas River  AT Canon City,38.43361,-105.25667,2597,2010-12-07 00:00,CO_DCP
FWLC2,ARKANSAS RIVER AT CATLIN DAM NEAR OLNEY SPRINGS NEAR FOWLER 6E (,38.1258,-103.9441,1306.6011,2018-07-12 00:00,CO_DCP
DRDA4,ARKANSAS RIVER  AT Dardanelle L&D DCP,35.2494,-93.1675,103,2010-12-06 00:00,AR_DCP
DRFK1,ARKANSAS RIVER  AT DEERFIELD,37.96972,-101.12833,898,2007-12-31 00:00,KS_DCP
DRBK1,Arkansas River  AT Derby,37.5441,-97.2752,390,2007-12-31 00:00,KS_DCP
FSAA4,ARKANSAS RIVER  AT Fort Smith,35.3917,-94.4325,103,2010-12-07 00:00,AR_DCP
GCKK1,Arkansas River  AT Garden City,37.9561,-100.8667,862,2007-12-31 00:00,KS_DCP
GTBK1,Arkansas River  AT Great Bend,38.353,-98.7638,570,2007-12-31 00:00,KS_DCP
SWNA4,ARKANSAS RIVER  AT Hardin L&D DCP,34.1667,-91.6833,53,2010-12-07 00:00,AR_DCP
KAWO2,ARKANSAS RIVER  AT KAW LAKE,36.7,-96.9167,310,2010-12-06 00:00,OK_DCP
KENK1,ARKANSAS RIVER  AT KENDALL,37.93,-101.5489,957,2007-12-31 00:00,KS_DCP
LXHC2,Arkansas River  AT La Junta,37.9906,-103.5319,1235,2010-12-07 00:00,CO_DCP
LNDA4,ARKANSAS RIVER  AT L&D #5 DCP,34.4167,-92.1,66,2010-12-06 00:00,AR_DCP
LITA4,Arkansas River  AT Little Rock,34.7497,-92.2691,51,2010-12-07 00:00,AR_DCP
MYLA4,ARKANSAS RIVER  AT Murray L&D DCP,34.8,-92.35,79,2010-12-06 00:00,AR_DCP
OXFK1,Arkansas River  AT Oxford,37.27,-97.16,350,2008-10-20 00:00,KS_DCP
PDLC2,Arkansas River  AT Parkdale,38.4872,-105.3731,1765,2011-03-29 00:00,CO_DCP
PRTC2,Arkansas River  AT Portland,38.3883,-105.0156,1543,2010-12-07 00:00,CO_DCP
RLSO2,Arkansas River  AT Ralston,36.5041,-96.728,245,2010-12-07 00:00,OK_DCP
LADA4,ARKANSAS RIVER  AT Sanders L&D DCP,34.25,-91.9,60,2010-12-07 00:00,AR_DCP
DTLA4,ARKANSAS RIVER  AT Terry L&D DCP,34.6686,-92.155,69,2010-12-06 00:00,AR_DCP
VBUA4,Arkansas River  AT Van Buren,35.4313,-94.3561,126,2010-12-07 00:00,AR_DCP
WFLO2,ARKANSAS RIVER  AT WEBBERS FALLS L&D 16,35.5538,-95.1683,152,2010-12-06 00:00,OK_DCP
NAGA4,ARKANSAS RIVER  AT Wilbur Mills Dam DCP,33.9833,-91.3167,51,2010-12-07 00:00,AR_DCP
ABEC2,Arkansas River Below Empire Gulch Near Malta,39.16389,-106.31944,2830.592,2011-04-28 00:00,CO_DCP
WBFO2,ARKANSAS RIVER NEAR WEBBERS FALL,35.5186,-95.1275,135,2010-12-07 00:00,OK_DCP
YCNA4,ARKANSAS RIVER NEAR YANCOPIN BRIDGE,33.9536,-91.2078,39,2010-12-07 00:00,AR_DCP
ARLV1,ARLINGTON,43.0833,-73.15,199,2010-11-19 00:00,VT_DCP
ARWG1,ARLINGTON,31.3772,-84.6547,75,2010-12-07 00:00,GA_DCP
AJST2,Arlington 1NE - Johnson Creek,32.7428,-97.0875,172.21165,2016-11-17 00:00,TX_DCP
AJCT2,Arlington 1S - Johnson Creek,32.7211,-97.1075,183.02031,2016-11-17 00:00,TX_DCP
RUST2,Arlington 4SW - Rush Creek,32.7183,-97.1731,159.19267,2016-11-17 00:00,TX_DCP
APRT2,Arlington 5SW - Rush Creek at Pleasant Ridge,32.6794,-97.1581,177.05078,2016-11-22 00:00,TX_DCP
ASUT2,Arlington 6SSW - Rush Creek,32.6489,-97.1458,185.29771,2016-11-17 00:00,TX_DCP
ARLK1,ARLINGTON DCP PRECIP,37.8955,-98.188,506,2007-12-31 00:00,KS_DCP
ZGDA3,Arlington - Gillespie Dam,33.2292,-112.7717,225.24788,2011-01-12 00:00,AZ_DCP
ARLM5,Arlington - High Island Creek,44.6225,-94.0919,298,2013-08-15 00:00,MN_DCP
AEDT2,Arlington - Rush Crek Trib at Eden Rd,32.6328,-97.1753,201.22203,2016-11-22 00:00,TX_DCP
ASCT2,Armand Bayou  AT CLear Lake Park,29.5658,-95.0706,6,2010-12-07 00:00,TX_DCP
ARMM8,ARMELLS CK RAWS NR,47.5867,-108.8694,852,2010-12-07 00:00,MT_DCP
CCCL1,ARM OF GRAND LAKE NEAR CROOK CHENE COVE,30.0533,-91.5333,5,2010-12-07 00:00,LA_DCP
AMAA4,ARMSTEAD MOUNTAIN,35.5731,-92.8192,482,2010-12-07 00:00,AR_DCP
ARCG1,Armuchee Creek 3 SE Armuchee,34.3608,-85.1403,184,2010-12-07 00:00,GA_DCP
AMWC1,ARMY WEIR,36.3861,-119.7881,72,2010-12-07 00:00,CA_DCP
ARNL1,Arnaudville - Bayou Teche,30.3972,-91.9306,4,2022-03-29 00:00,LA_DCP
ATSO2,ARNETT MESONET,36.072,-99.9031,726,2010-12-07 00:00,OK_DCP
ARNC1,CALAVERAS  BIG TREES,38.2769,-120.3113,1451,2010-11-30 00:00,CA_DCP
ARNO3,ARNOLD CANAL,43.9944,-121.3778,1198,2010-12-07 00:00,OR_DCP
ARNP1,Arnold-Creighton,40.5772,-79.7611,284.2535,2013-04-03 00:00,PA_DCP
ARNN6,ARNOT FOREST,42.2632,-76.6278,382,2010-12-07 00:00,NY_DCP
MASM1,Aroostook River  AT Masardis,46.523,-68.3716,163,2010-12-07 00:00,ME_DCP
WSHM1,Aroostook River  AT Washburn,46.7772,-68.1572,136,2010-12-07 00:00,ME_DCP
AZZC2,Arriola 3S,37.4,-108.6436,1905.6221,2020-02-10 00:00,CO_DCP
AWCC1,ARROWHEAD SPRING HOTEL,34.1839,-117.2639,584,2010-12-09 00:00,CA_DCP
AWWN8,ARROWWOOD 2,47.2667,-98.8667,467,2007-12-31 00:00,ND_DCP
ACCA3,ARROYO CHICO AT CHERRY,32.2164,-110.948,741,2010-12-07 00:00,AZ_DCP
HAGT2,Arroyo Colorado  S Harlingen,26.1733,-97.6836,13,2010-12-07 00:00,TX_DCP
ACMC1,ARROYO CORTE MADERA  AT ARROYO CORTE MADERA DEL PRESIDIO,37.8983,-122.535,7,2010-12-07 00:00,CA_DCP
AGGC1,ARROYO GRANDE  AT Arroyo Grande Creek At 22nd St Bridge,35.0955,-120.6072,10,2010-12-07 00:00,CA_DCP
AGEC1,ARROYO GRANDE CREEK,35.124,-120.568,44,2010-12-07 00:00,CA_DCP
AGHC1,ARROYO GRANDE CREEK AT CECCHITTI,35.1486,-120.5308,75,2010-12-07 00:00,CA_DCP
AGMC1,ARROYO GRANDE CREEK AT MYRTLE ST,35.1244,-120.568,44,2010-12-07 00:00,CA_DCP
ALGC1,ARROYO GRANDE CREEK LAGOON,35.1002,-120.6283,3,2010-12-07 00:00,CA_DCP
LBSC1,Arroyo Grande - Los Berros,35.1102,-120.4936,350.80185,2014-07-04 00:00,CA_DCP
ARGC1,ARROYO GRANDE RAWS NEAR ARROYO GRANDE CR,35.1919,-120.4317,190,2010-12-07 00:00,CA_DCP
AHOC1,ARROYO HONDO NR SAN JOSE,37.4617,-121.7683,331,2010-12-07 00:00,CA_DCP
AYOC1,ARROYO LAS POSAS/HCH 4 NNE Arroyo Las Posas/Hch,34.2714,-118.9239,132,2010-12-07 00:00,CA_DCP
ASPC1,ARROYO SECO NR PASADENA 9 SE Arroyo Seco Nr Pasedena,34.2222,-118.1767,550,2010-12-07 00:00,CA_DCP
ASRC1,ARROYO SECO RAWS,36.23,-121.4917,446,2010-12-07 00:00,CA_DCP
GRFC1,ARROYO SECO RIVER 2 W ARROYO SECO BL RELIZ CREEK,36.3997,-121.3231,59,2010-12-07 00:00,CA_DCP
ASNC1,Arroyo Simi  AT Arroyo Simi Near Simi,34.2774,-118.7955,221,2010-12-07 00:00,CA_DCP
ASJC1,ARROYO SIMI AT ROYAL,34.2641,-118.7355,278,2010-12-07 00:00,CA_DCP
ASWC1,ARROYO SIMI BELOW STOW,34.2685,-118.6855,306,2010-12-07 00:00,CA_DCP
ARYC1,ARROYO TRABUCO AT SAN JUAN CAPISTRANO CA,33.4983,-117.665,30,2010-12-07 00:00,CA_DCP
LSTT2,Arsenal 1SE - Lonestar Road,29.4025,-98.4877,189.61346,2020-02-19 00:00,TX_DCP
ARTK2,Artemus,36.8278,-83.8291,315,2011-06-03 00:00,KY_DCP
ARTV2,Artemus Road,38.8243,-77.5767,76,2022-11-10 00:00,VA_DCP
ARVW2,Arvilla,39.4317,-81.0619,192,2010-12-07 00:00,WV_DCP
ASBM7,ASBURY WATER STATION,37.3672,-94.6172,283,2008-10-16 00:00,MO_DCP
ATBM6,ASCALMORE TIPPO BAYOU 9 SE ASCALMORE TIPPO BAYOU NR SWAN LAKE,33.7692,-90.1303,37,2010-12-07 00:00,MS_DCP
ASCO1,ASCS,40.66,-83.64,310,2010-05-25 00:00,OH_DCP
MFAA3,Ash Canyon Alert Gauge,31.3678,-110.2658,1871,2011-07-19 00:00,AZ_DCP
ACLN2,Ash Canyon Creek 2 W Ash Canyon Ck Nr Carson City,39.1764,-119.8047,1568,2010-12-07 00:00,NV_DCP
ASHA4,ASHDOWN 4SSE,33.6192,-94.0997,105,2010-12-09 00:00,AR_DCP
ZAHA3,Asher Hills,33.7175,-111.6836,505.32568,2011-12-06 00:00,AZ_DCP
FBCN7,Asheville 1WSW - French Broad River,35.5894,-82.5718,604,2019-09-05 00:00,NC_DCP
HCAN7,Asheville 3SW - Hominy Creek,35.56139,-82.59694,607,2021-11-13 00:00,NC_DCP
GBAN7,Asheville 4E - Grassy Branch,35.6004,-82.4762,651,2022-09-28 00:00,NC_DCP
AVL,ASHEVILLE REGIONAL AIRPORT,35.4319,-82.5375,641,2010-12-14 00:00,NC_DCP
SPUM3,Ashfield,42.5167,-72.85,423.27234,2011-01-04 00:00,MA_DCP
ASHW1,Ashford 3W Raws,46.75528,-122.10667,437.8359,2011-07-27 00:00,WA_DCP
YAFA3,ASH FORK DRAW @ I-40,35.2215,-112.47622,1562.7654,2010-12-08 00:00,AZ_DCP
ASFA3,ASH FORK PRECIPITATION GAUGE,35.4166,-112.7083,1868,2010-12-07 00:00,AZ_DCP
ASDO1,Ashland,40.8561,-82.3114,342,2010-09-24 00:00,OH_DCP
TASM8,Ashland,45.59775,-106.27494,885,2023-05-22 00:00,MT_DCP
ASPN6,ASHLAND,42.3217,-74.3271,537,2010-12-21 00:00,NY_DCP
ASHK1,ASHLAND,37.1939,-99.7628,605,2004-01-01 00:00,KS_DCP
ASLM7,ASHLAND 2N,38.8119,-92.2569,261,2007-12-31 00:00,MO_DCP
ASUK1,Ashland 8S,37.0647,-99.751,560,2023-08-19 00:00,KS_DCP
CHPT1,Ashland City - Cheatham Dam,36.3144,-87.2275,164.24869,2012-10-10 00:00,TN_DCP
ASPS1,ASHLEY RIVER AT I-526 PIERPOINT,32.8344,-80.0239,-1,2010-12-07 00:00,SC_DCP
TSHC1,ASH MOUNTAIN RAWS,36.4917,-118.8261,521,2010-12-07 00:00,CA_DCP
ASCN2,ASH SPRINGS CK BLO HWY 93,37.4603,-115.1936,1107,2010-12-07 00:00,NV_DCP
ASBO1,Ashtabula Lighthouse,41.918,-80.796,174,2022-06-29 00:00,OH_DCP
ASHI1,Ashton 1N,44.0424,-111.2739,1728.9205,2010-12-01 00:00,ID_DCP
GILN3,ASHUELOT RIVER,43.0392,-72.2706,249,2010-12-07 00:00,NH_DCP
KENN3,ASHUELOT RIVER 5 NNW SURRY MT DAM,42.9944,-72.3111,153,2010-12-07 00:00,NH_DCP
HDLN3,ASHUELOT RIVER  AT HINSDALE,42.7853,-72.4867,70,2010-12-07 00:00,NH_DCP
KNEN3,ASHUELOT RIVER  AT KEENE,43,-72.3167,213,2010-12-07 00:00,NH_DCP
SWAN3,ASHUELOT RIVER  AT WEST SWANZEY,42.8711,-72.3283,145,2010-12-07 00:00,NH_DCP
AVLC1,ASH VALLEY GOES,41.0519,-120.6861,1557,2010-12-07 00:00,CA_DCP
ASVO1,ASHVILLE,39.7025,-82.9631,213,2010-10-10 00:00,OH_DCP
ASVA1,Ashville 4SW,33.7922,-86.3044,180.344,2017-12-01 00:00,AL_DCP
AVRN7,Ashville - Rain,35.6088,-82.5802,604.8838,2014-05-05 00:00,NC_DCP
ASIA2,Asiak RAWS,67.475,-162.26639,249.3865,2012-09-06 00:00,AK_DCP
ASNW1,ASOTIN 14 SW,46.2011,-117.2517,1057,2010-12-08 00:00,WA_DCP
ACAW1,ASOTIN CREEK  AT ASOTIN,46.34,-117.06,336,2010-12-07 00:00,WA_DCP
AGCW1,ASOTIN CREEK  AT George Creek near Asotin,46.323,-117.135,337,2010-12-07 00:00,WA_DCP
APXC2,Aspen,39.18,-106.8014,2441.8135,2011-09-20 00:00,CO_DCP
HUTC2,Aspen - Hunter Creek,39.1968,-106.8189,2402.3877,2012-04-19 00:00,CO_DCP
MACC2,Aspen - Maroon Creek,39.16333,-106.88056,2539.8994,2019-11-05 00:00,CO_DCP
ASST2,ASPERMONT 3NE,33.1681,-100.1961,529,2010-12-07 00:00,TX_DCP
MAYM3,Assabet River  AT Maynard,42.4319,-71.4503,50,2010-12-07 00:00,MA_DCP
ASTM2,Assateague Island,38.08659,-75.20085,0.30701184,2010-12-07 00:00,MD_DCP
ASYU1,ASSAY,37.55,-112.5667,2433,2010-12-07 00:00,UT_DCP
CLKN4,Assunpink Creek  AT Clarksville,40.2697,-74.6722,21,2010-12-07 00:00,NJ_DCP
MERN4,Assunpink Creek  AT Mercerville,40.2475,-74.7277,16.472425,2013-01-29 00:00,NJ_DCP
TACN4,Assunpink Creek  AT Trenton,40.2242,-74.7495,12,2010-12-07 00:00,NJ_DCP
SNKS2,Aston 2S - Snake River,44.9667,-98.5167,385.99805,2010-03-20 00:00,SD_DCP
ASTO3,Astoria - 9439040,46.207,-123.768,1.169599,2016-08-30 00:00,OR_DCP
SOCS1,AT Aiw At Hwy 544 At Socastee,33.6869,-79.005,-8,2010-12-07 00:00,SC_DCP
APDC1,AT Alamo Pineda Creek Nr Solvang,34.6183,-120.1197,176,2010-12-07 00:00,CA_DCP
ALAG1,AT Alapaha,31.3842,-83.1925,70,2010-12-07 00:00,GA_DCP
IVLG1,AT Alapaha River near Irwinville,31.6311,-83.4181,85,2010-12-07 00:00,GA_DCP
ANTA2,AT Anchorage NOS,61.2341,-149.8841,15,2014-04-16 00:00,AK_DCP
ATCC1,ATASCADERO,35.4611,-120.7583,414,2010-12-06 00:00,CA_DCP
LHFT2,Atascocita 4ENE - Lake Houston,30.016,-95.1218,15,2018-11-15 00:00,TX_DCP
WTTT2,Atascosa River 2 SW Whitsett,28.6219,-98.2811,63,2010-12-07 00:00,TX_DCP
MYAT2,ATASCOSA RIVER  AT MCCOY,28.8458,-98.3361,85,2010-12-07 00:00,TX_DCP
ATKA2,AT Atka,52.232,-174.173,0.9002797,2015-09-06 00:00,AK_DCP
BNKA1,AT Bankhead Lock and Dam,33.4583,-87.3542,77.755005,2011-01-14 00:00,AL_DCP
GTEL1,AT Barataria Bay near Grand Terre Island,29.3247,-89.9403,0.084124796,2010-12-07 00:00,LA_DCP
BFTN7,AT Beaufort Marine Lab,34.7172,-76.6672,2.769321,2015-08-05 00:00,NC_DCP
BLMN4,AT Belmar,40.1794,-74.0386,-1,2010-12-07 00:00,NJ_DCP
BCDA1,AT Big Creek Lake,30.7208,-88.3042,37,2010-12-08 00:00,AL_DCP
PCDM6,AT Biloxi Bay at Point Cadet,30.3897,-88.8572,10,2010-12-07 00:00,MS_DCP
PCHM6,AT Biloxi Bay at Point Cadet Harbor,30.3883,-88.8572,0.5899569,2010-12-07 00:00,MS_DCP
CAPN4,AT Cape May Harbor,38.9486,-74.8206,0,2010-12-07 00:00,NJ_DCP
FRMK2,AT Cave Run Farmers,38.14,-83.5572,206,2010-12-07 00:00,KY_DCP
EUGL1,ATCHAFALAYA BAY NR EUGENE ISLAND,29.37,-91.381,0,2010-12-07 00:00,LA_DCP
SMML1,Atchafalaya River 1 E Simmesport,30.9825,-91.7983,19,2010-12-07 00:00,LA_DCP
SMAL1,Atchafalaya River 1 E Simmesport,30.9825,-91.7983,11.502832,2014-08-20 00:00,LA_DCP
MLVL1,Atchafalaya River 1 SE Melville,30.6906,-91.7361,-1,2010-12-07 00:00,LA_DCP
BLML1,Atchafalaya River 2 NE BAYOU LATENACHE NEAR MELVILLE,30.7287,-91.7332,8,2010-12-07 00:00,LA_DCP
RMHL1,ATCHAFALAYA RIVER 2 SSW EABPL Borrow Pit near Ramah,30.3694,-91.5194,9.734375,2014-05-09 00:00,LA_DCP
PPAL1,ATCHAFALAYA RIVER 4 SSW Belle River near Pierre Part,29.9089,-91.2158,6,2010-12-07 00:00,LA_DCP
BBOL1,Atchafalaya River  AT Bayou Boeuf at Amelia,29.6684,-91.0984,6,2010-12-07 00:00,LA_DCP
BLRL1,Atchafalaya River  AT Butte La Rose,30.2814,-91.6867,10,2010-12-07 00:00,LA_DCP
KRZL1,Atchafalaya River  AT Krotz Springs,30.5688,-91.7615,11,2010-12-07 00:00,LA_DCP
MCGL1,Atchafalaya River  AT Morgan City,29.6964,-91.2108,8,2010-12-07 00:00,LA_DCP
GNDL1,Atchafalaya River  AT Myette Point,29.8925,-91.4456,8,2010-12-07 00:00,LA_DCP
ATCP1,ATCHESON,40.1725,-80.3883,307,2010-12-07 00:00,PA_DCP
CHOT2,CHOKE CANYON DAM,28.4675,-98.2667,63,2010-12-08 00:00,TX_DCP
HCGN7,AT Coast Guard Hatteras,35.208,-75.703,-2,2015-08-05 00:00,NC_DCP
CMBI3,AT COLUMBIA ST. AT FT. WAYNE,41.0819,-85.1322,226.52634,2012-02-01 00:00,IN_DCP
CNJC2,AT Conejos,37.1031,-106.0117,2398,2010-12-07 00:00,CO_DCP
MOGC2,AT Conejos River,37.0539,-106.1867,2580,2010-12-07 00:00,CO_DCP
CRVA2,AT Cordova NOS,60.5583,-145.7533,72.046326,2014-04-16 00:00,AK_DCP
CECC1,AT CRESCENT CITY HARBOR TIDE GAGE,41.7958,-124.2147,18,2010-12-07 00:00,CA_DCP
CKDA2,AT Crooked Creek at Airport Rd Bridge,61.8717,-158.1236,49.5334,2010-12-07 00:00,AK_DCP
ELFA2,AT Elfin Cove,58.193,-136.343,46,2014-04-16 00:00,AK_DCP
CSNC2,AT Fountain Ck @ 33rd,38.8547,-104.8775,1875,2010-12-07 00:00,CO_DCP
EHVC3,AT Furnace Pond,41.2806,-72.86,6,2010-12-07 00:00,CT_DCP
ATGP1,Atglen Deos,39.9233,-75.988,197.73671,2012-05-31 00:00,PA_DCP
CFPL1,AT GRAND CHENIER 10NE,29.8629,-92.8492,3,2010-12-07 00:00,LA_DCP
ARGC2,AT Granite,39.0428,-106.2653,2745,2010-12-07 00:00,CO_DCP
GRET2,AT Greenbelt Lake,35.0006,-100.8944,785,2010-12-07 00:00,TX_DCP
GRNM6,AT Grenada DAM,33.8056,-89.7714,84,2010-12-01 00:00,MS_DCP
HAMC3,AT Hamden,41.3372,-72.9106,12,2010-12-07 00:00,CT_DCP
HMLI3,AT HAMILTON LAKE AT HAMILTON,41.5361,-84.9125,273,2012-01-31 00:00,IN_DCP
RHAT2,ATHENS,32.2211,-95.7661,153,2010-12-07 00:00,TX_DCP
AHNA1,ATHENS,34.7906,-86.9656,213,2010-12-20 00:00,AL_DCP
ATHM1,ATHENS,44.9475,-69.6569,139,2010-12-07 00:00,ME_DCP
AFRG1,ATHENS,33.8967,-83.3656,223,2010-12-07 00:00,GA_DCP
AHCG1,ATHENS 12S,33.7883,-83.3933,227,2010-12-07 00:00,GA_DCP
ATHO1,Hocking River  AT Athens,39.3333,-82.1067,239,2008-10-16 00:00,OH_DCP
ACUC1,Atherton - Caltrain,37.4619,-122.1938,17.324238,2020-11-24 00:00,CA_DCP
HCCC1,AT Hilton Canyon Creek Nr Santa Ynez,34.5822,-119.9816,218,2010-12-07 00:00,CA_DCP
TULM3,Athol - Tully Lake,42.65,-72.23,221.31168,2011-01-04 00:00,MA_DCP
HMOF1,AT Homosassa Springs,28.7994,-82.5889,6,2010-12-07 00:00,FL_DCP
HOUH1,AT Honouliuli Stream,21.4018,-158.0669,202.37352,2012-09-27 00:00,HI_DCP
HSAC1,AT Huasna River Near Arroyo Grande,35.0777,-120.3708,205,2010-12-07 00:00,CA_DCP
ARGA2,Atigun River  AT Atigun River below Galbraith Lake,68.4528,-149.3683,800.7926,2010-12-07 00:00,AK_DCP
BTJL1,AT JEANERETTE,29.8791,-91.5861,6,2010-12-07 00:00,LA_DCP
WPKA1,AT Jordan Dan,32.6167,-86.25,103,2010-12-07 00:00,AL_DCP
JNEA2,AT Juneau NOS,58.2983,-134.4117,7,2014-04-16 00:00,AK_DCP
KOSH1,AT Kaukonahua Stream below Wahiawa Dam,21.5,-158.0508,263.78574,2012-10-25 00:00,HI_DCP
KOWH1,AT Kaukonahua Stream near Wailua,21.5653,-158.1204,9.996984,2012-10-25 00:00,HI_DCP
KSBN4,AT Keansburg,40.4489,-74.1478,3,2010-12-07 00:00,NJ_DCP
KECA2,AT Ketchikan NOS,55.333,-131.625,7,2014-04-16 00:00,AK_DCP
ATDI4,Atkins - Dry Creek,42.0217,-91.8535,239.51476,2013-01-30 00:00,IA_DCP
LADP4,AT LAGO ADJUNTAS NR ADJUNTAS,18.2017,-66.7325,348.90402,2010-12-07 00:00,PR_DCP
MELP4,AT LAGO MELANIA NR GUAYAMA,17.9814,-66.1453,71.49511,2010-12-07 00:00,PR_DCP
VIVP4,AT LAGO VIVI NR UTUADO,18.2311,-66.6792,352.36206,2010-12-07 00:00,PR_DCP
BTYC3,AT Lake Bethany,41.4127,-72.9688,131.60577,2012-03-29 00:00,CT_DCP
CHMC3,AT Lake Chamberlain,41.3933,-72.9891,115.441086,2012-03-29 00:00,CT_DCP
DAWC3,AT Lake Dawson,41.3677,-72.98,45.475655,2012-04-12 00:00,CT_DCP
NBRC3,AT Lake Gaillard,41.3372,-72.7711,62,2010-12-07 00:00,CT_DCP
NBWC3,AT Lake Gaillard,41.3363,-72.7708,43.655075,2012-03-29 00:00,CT_DCP
GLNC3,AT Lake Glen,41.3783,-72.9794,68.33835,2012-03-29 00:00,CT_DCP
MADC3,AT Lake Hammonasset,41.375,-72.6194,85,2010-12-07 00:00,CT_DCP
MAWC3,AT Lake Hammonasset Weir,41.375,-72.6194,88.68633,2013-04-16 00:00,CT_DCP
MAXI3,AT LAKE MAXINKUCKEE AT CULVER,41.1967,-86.4167,225.9362,2012-01-31 00:00,IN_DCP
MRIT2,AT Lake Meredith,35.7106,-101.5508,914,2010-12-06 00:00,TX_DCP
LMTN1,AT LAKE MINATARE RESERVOIR,41.9183,-103.4886,1261,2008-01-08 00:00,NE_DCP
LKPC1,AT Lake Piru Near Piru,34.4613,-118.7505,322,2010-12-07 00:00,CA_DCP
SLTC3,AT Lake Saltonstall,41.2836,-72.8627,19.953762,2012-04-12 00:00,CT_DCP
SPNI2,LAKE SPRINGFIELD,39.7578,-89.6044,175,2008-10-17 00:00,IL_DCP
WTSC3,AT Lake Watrous,41.3844,-72.9702,66.290115,2012-03-29 00:00,CT_DCP
FFC,PEACHTREE CITY FALCON FIELD,33.35428,-84.56896,241.0968,2011-09-27 00:00,GA_DCP
ATAM7,ATLANTA,39.8694,-92.5206,261,2007-12-31 00:00,MO_DCP
ATLI1,ATLANTA,43.8042,-115.1597,1752,2010-12-07 00:00,ID_DCP
ATLK1,ATLANTA DCP,37.4338,-96.7711,440,2007-12-31 00:00,KS_DCP
NFBG1,Atlanta - NF Peachtree,33.84167,-84.32194,266.53778,2019-04-12 00:00,GA_DCP
ATAM4,ATLANTA RAWS,45.1333,-84.1667,311,2008-10-16 00:00,MI_DCP
AIO,ATLANTIC MUNICIPAL AP,41.40722,-95.04667,360.2736,2011-04-27 00:00,IA_DCP
ATLI4,ATLANTIC 1 NE,41.4181,-95.0031,356,2004-01-02 00:00,IA_DCP
OCIM2,Atlantic  AT Ocean City Inlet,38.328,-75.092,0,2011-11-05 00:00,MD_DCP
WAHV2,Atlantic  AT Wachapreague,37.61,-75.67,-2.2538207,2012-02-12 00:00,VA_DCP
CCHV2,Atlantic Basin 5 ENE Anheuser Busch Coastal Research Center,37.2908,-75.9272,9,2010-12-07 00:00,VA_DCP
RKWN6,Atlantic Beach  AT East Rockaway Inlet,40.593,-73.7377,4,2010-12-07 00:00,NY_DCP
ABEN7,Atlantic Beach - Bogue Sound,34.7114,-76.7368,0,2021-04-29 00:00,NC_DCP
ACYN4,Atlantic City - 8534720,39.355,-74.418,-0.45033377,2016-08-30 00:00,NJ_DCP
NIXS1,ATLANTIC INTRACOATAL WATERWAY  AT Aiw At Nixons Crossroads,33.8514,-78.6561,0.8705738,2010-12-07 00:00,SC_DCP
CSAG1,Atlantic Ocean  AT Cumberland Sound at Sea Camp Dock Near St. Ma,30.7644,-81.4714,8.481609,2013-11-30 00:00,GA_DCP
IWDN6,Atlantic Ocean  AT Inwood,40.6172,-73.7583,2,2010-12-07 00:00,NY_DCP
LNDN6,Atlantic Ocean  AT Lindenhurst,40.6693,-73.356,0.3000001,2010-12-07 00:00,NY_DCP
JMPN7,ATLANTIC OCEAN  AT Nos Tide Gage At Wrightsville Beach,34.21,-77.795,1.4631248,2011-12-27 00:00,NC_DCP
SDHN4,Atlantic Ocean  AT Sandy Hook,40.4667,-74,-1.040704,2012-03-26 00:00,NJ_DCP
LSSC2,AT Lasauses,37.3008,-105.7531,2293,2010-12-07 00:00,CO_DCP
NAPC1,ATLAS PEAK,38.433,-122.25,681,2010-12-07 00:00,CA_DCP
ATLC1,Atlas Peak Raws,38.4747,-122.2647,597,2011-01-25 00:00,CA_DCP
LOBC2,AT Lobatos,37.0783,-105.7564,2267,2010-12-07 00:00,CO_DCP
MKZT2,AT Mackenzie Reservoir,34.5453,-101.4378,943,2010-12-07 00:00,TX_DCP
MTOC3,AT Maltby Lake #1,41.3055,-72.9741,41.954765,2012-03-29 00:00,CT_DCP
MTTC3,AT Maltby Lake #2,41.3069,-72.98,50.524914,2012-04-12 00:00,CT_DCP
MTRC3,AT Maltby Lake #3,41.3033,-72.9838,53.307125,2012-03-29 00:00,CT_DCP
MTLN4,AT Mantaloking,40.04,-74.0522,0.8750153,2010-12-07 00:00,NJ_DCP
MTGC1,AT Matilija Creek Nr Reservoir Nr Matilija,34.5027,-119.3563,433,2010-12-07 00:00,CA_DCP
MKAF1,AT Myakka City,27.3433,-82.1569,16,2010-12-07 00:00,FL_DCP
RGLA1,AT Neely Henry,33.7839,-86.0528,153,2010-12-07 00:00,AL_DCP
NKTA2,AT Nikiski NOS,60.6833,-151.3856,38.12111,2014-04-16 00:00,AK_DCP
NOCF1,AT Nocatee,27.1664,-81.8797,10,2010-12-07 00:00,FL_DCP
NMTA2,AT Nome NOS,64.5,-165.4189,-0.004896,2014-04-16 00:00,AK_DCP
PCDT2,AT NORTH FORK SAN PEDRO CREEK,29.52222,-100.88333,347.18826,2010-12-07 00:00,TX_DCP
NPRF1,AT North Port,27.0472,-82.2378,9,2010-12-07 00:00,FL_DCP
MROS1,AT Nos Tide Gage At Springmaid Pier,33.655,-78.9183,0,2011-12-27 00:00,SC_DCP
OFBM6,AT Old Fort Bayou at Ocean Springs,30.4192,-88.8281,6.9756384,2014-06-15 00:00,MS_DCP
OCKC1,AT Orcutt Creek Near Orcutt Ca,34.8836,-120.4939,57,2011-01-02 00:00,CA_DCP
ORIN7,AT Oregon Inlet Marina,35.7856,-75.55,-2,2015-08-05 00:00,NC_DCP
PDDW4,AT Park Diversion Ditch,44.5725,-107.2092,2506,2010-12-07 00:00,WY_DCP
UCCT2,AT Pearland,29.5883,-95.3842,18,2010-12-07 00:00,TX_DCP
SWMC3,AT Peat Swamp Reservoir,41.37,-73.0591,115.01974,2012-03-29 00:00,CT_DCP
PIKI3,AT PIKE LAKE AT WARSAW,41.2622,-85.85,246.79582,2012-01-31 00:00,IN_DCP
PGMV2,AT PILGRIM KNOB,37.2833,-81.8833,673,2010-12-07 00:00,VA_DCP
PNBF1,AT Pinellas Park,27.8719,-82.7372,7,2010-12-07 00:00,FL_DCP
PPDT2,AT PINTO CREEK NEAR DEL RIO,29.14583,-100.71806,253.23274,2010-12-07 00:00,TX_DCP
HDGC2,AT Pioneer Ditch At Headgate,40.0844,-102.1417,1052,2011-04-13 00:00,CO_DCP
PLXA2,AT Port Alexander,56.2467,-134.6467,13,2015-09-06 00:00,AK_DCP
PMTP1,AT Prompton Lake,41.5833,-75.3333,384,2010-12-07 00:00,PA_DCP
PRPC3,AT Prospect Reservoir,41.5027,-72.9466,139.13864,2012-03-29 00:00,CT_DCP
ARMC2,AT Pueblo,38.2536,-104.6056,1418,2010-12-07 00:00,CO_DCP
MVTC2,AT Rg @ Monte Vista,37.6094,-106.1483,2342,2010-12-07 00:00,CO_DCP
RWGC2,AT Rg @ Wagonwheel Gap,37.7669,-106.8308,2576,2010-12-07 00:00,CO_DCP
RHCC1,AT Rio Hondo Blw Whittier Narrows,34.0166,-118.0874,59,2010-12-07 00:00,CA_DCP
YMCK2,AT Rock Creek near Yamacraw,36.70278,-84.56306,246.8247,2015-11-12 00:00,KY_DCP
JSNM6,AT Ross Barnett Reservoir,32.3975,-90.0647,95,2010-12-01 00:00,MS_DCP
RCRT2,AT ROUGH CANYON NEAR DEL RIO,29.57778,-100.93333,355.65808,2010-12-07 00:00,TX_DCP
SRQC1,AT San Gabriel River Abv Whittier Narrows,34.0333,-118.0372,71,2010-12-07 00:00,CA_DCP
SFHC1,AT San Gabriel River Blw Santa Fe Dam,34.1122,-117.9686,141,2010-12-07 00:00,CA_DCP
SYYC1,AT Santa Ynez River Nr Santa Ynez,34.58917,-116.98778,208,2010-12-07 00:00,CA_DCP
SDNN4,AT S. Dennis,39.1617,-74.8325,1,2010-12-07 00:00,NJ_DCP
OVIA2,AT Seldovia NOS,59.44,-151.72,-0.00010943995,2014-04-16 00:00,AK_DCP
SSEC1,AT Sespe Creek East,34.3936,-118.9394,121,2010-12-07 00:00,CA_DCP
SSXC1,AT Sespe Creek West,34.3938,-118.9497,121,2010-12-07 00:00,CA_DCP
WELC3,AT Seymour Wellfield,41.3502,-73.1316,12.58513,2012-03-29 00:00,CT_DCP
ITKA2,AT Sitka NOS,57.0517,-135.3417,9,2014-04-16 00:00,AK_DCP
SKTA2,AT Skagway NOS,59.45,-135.318,8,2014-04-16 00:00,AK_DCP
ARKA1,AT Smith Dam,33.9406,-87.1078,121,2010-12-07 00:00,AL_DCP
KLNG1,AT ST MARYS RIVER AT I-95 NEAR KINGSLAND,30.7439,-81.6544,-0.5791211,2010-12-07 00:00,GA_DCP
SHBN4,AT Stone Harbor,39.0569,-74.7658,-0.49468285,2010-12-07 00:00,NJ_DCP
SSPF1,AT Sulpher Springs,28.0208,-82.4525,5,2010-12-07 00:00,FL_DCP
SUDA2,AT Susitna River at Denali Hwy.,63.1039,-147.5158,746,2010-12-07 00:00,AK_DCP
SUWF1,AT Suwannee River above Gopher River Confluence.,29.3469,-83.0628,21,2010-12-07 00:00,FL_DCP
DLNF1,AT Tampa,27.9256,-82.3644,13,2010-12-07 00:00,FL_DCP
ATCN6,Attica,42.8611,-78.2844,308.5506,2013-02-06 00:00,NY_DCP
TCBM2,AT Tolchester Beach,39.2167,-76.2333,12,2011-08-27 00:00,MD_DCP
TCFP1,AT Towanda Creek At Franklindale,41.6978,-76.5786,275,2010-12-07 00:00,PA_DCP
ATBT2,Attoyac Bayou 3 E Chireno,31.5042,-94.3042,64,2010-12-07 00:00,TX_DCP
TCRI3,AT TRAIL CREEK AT MICHIGAN CITY,41.7167,-86.8597,189,2007-12-31 00:00,IN_DCP
MGNI3,AT TRAIL CREEK AT MICHIGAN CITY HARBOR,41.7228,-86.9042,177,2007-12-31 00:00,IN_DCP
TKTN4,AT Tuckerton,39.5086,-74.325,3,2010-12-07 00:00,NJ_DCP
ANWT2,ATTWATER  NATIONAL WILDLIFE REFUGE,29.6617,-96.2597,55,2010-12-07 00:00,TX_DCP
UBLA2,AT Ublutuoch River near Nuiqsut,70.2431,-151.2969,15.408863,2010-12-07 00:00,AK_DCP
FARO1,AT UNNAMED TRIBUTARY TO LOST CREEK NEAR FARMER,41.3617,-84.6911,238,2008-10-16 00:00,OH_DCP
MSBM6,AT USGS Merrill Shell Bank Lighthouse,30.2414,-89.2489,0,2010-12-07 00:00,MS_DCP
WISH1,AT Waihi Stream,21.3284,-157.8009,107.571815,2012-09-27 00:00,HI_DCP
ATWC1,ATWELL CAMP,36.4639,-118.6311,2367,2010-11-30 00:00,CA_DCP
NLKN6,Atwell - North Lake,43.5167,-74.95,545.23956,2011-01-05 00:00,NY_DCP
ORNC3,AT Wepawaug,41.3033,-73.0306,57,2010-12-07 00:00,CT_DCP
WSPC2,AT West Salt Creek Landslide Sag Pool - RAPID DEPLOY,39.255,-108.26805,1502.5925,2014-06-13 00:00,CO_DCP
SWTN7,at Wolfetown Rd (US 19) 5 E Cherokee,35.465,-83.23556,708,,NC_DCP
WBGC3,AT Woodbridge,41.3681,-72.9806,54,2010-12-07 00:00,CT_DCP
AWDO1,Atwood Lake Tailwater,40.5244,-81.2906,277,2010-12-13 00:00,OH_DCP
WOOM2,AT Woodstock,39.3333,-76.8667,112,2010-12-07 00:00,MD_DCP
YATA2,AT Yakutat NOS,59.548,-139.735,1,2014-04-16 00:00,AK_DCP
MAPA3,AUBREY PEAK,34.6634,-113.7299,1504,2010-12-07 00:00,AZ_DCP
ABRM1,Auburn,44.06,-70.2756,90.43357,2015-04-01 00:00,ME_DCP
CHWA1,AUBURN,32.5453,-85.4806,148,2010-12-07 00:00,AL_DCP
ADVC1,Auburn 1SE - N FK American,38.8851,-121.0599,163,2018-12-01 00:00,CA_DCP
BRUC1,Auburn 6NW - Bell Road,38.9717,-121.1417,354.20352,2021-07-22 00:00,CA_DCP
AAPC1,AUBURN AIRPORT,38.9556,-121.0794,469,2010-12-07 00:00,CA_DCP
AUBO1,Auburn Crnr WWTP,41.4,-81.2164,367,2009-12-18 00:00,OH_DCP
LLAF1,AUBURNDALE,27.9997,-81.8122,41,2010-12-07 00:00,FL_DCP
ADRC1,AUBURN DAM RIDGE,38.8819,-121.045,354,2010-12-07 00:00,CA_DCP
AHCM4,AUBURN HILLS,42.6333,-83.2244,263,2008-10-16 00:00,MI_DCP
AUNA1,Auburn - North Auburn,32.65,-85.4667,186.37788,2012-03-20 00:00,AL_DCP
WRPW1,Auburn - White River,47.2714,-122.2189,35.555862,2012-09-10 00:00,WA_DCP
WFBC1,Auburn - Wise Forebay,38.9139,-121.0825,436,2012-03-21 00:00,CA_DCP
LAMF1,Aucilla River 0.6 SE Lamont (US 27),30.3697,-83.8069,32,2010-12-07 00:00,FL_DCP
NUTF1,Aucilla River 12 ESE Nutall Rise,30.1122,-83.98,7,2010-12-07 00:00,FL_DCP
ASHF1,Aucilla River  AT Sneads Smokehouse Lake near Ashville,30.5958,-83.7208,24.159464,2012-01-24 00:00,FL_DCP
AUDI4,Audubon,41.7167,-94.9333,393.26935,2004-01-01 00:00,IA_DCP
SLYP1,Aughwick Creek 1 SW Shirleysburg,40.2833,-77.8833,190,2010-12-07 00:00,PA_DCP
AUGP1,Aughwick Creek  AT Three Springs,40.2125,-77.9256,198,2010-12-07 00:00,PA_DCP
AGHP1,AUGHWICK HEADWATER,40.0975,-78.0917,558,2010-12-07 00:00,PA_DCP
FTJO1,Auglaize River 4 NE Fort Jennings,40.95,-84.2667,221,2008-10-16 00:00,OH_DCP
DFCO1,Auglaize River 5SW AT Defiance Power Plant,41.2833,-84.2667,217,2008-10-17 00:00,OH_DCP
AUGA4,White River 2 NW Augusta,35.2894,-91.3533,63,2010-12-07 00:00,AR_DCP
NSLG1,AUGUSTA,33.3731,-81.9422,45,2010-12-07 00:00,GA_DCP
SRAG1,Augusta 1NE - Savannah River,33.47667,-81.95722,36,2017-06-22 00:00,GA_DCP
AGTM1,Augusta 4SE,44.29,-69.7078,75.49618,2011-02-01 00:00,ME_DCP
AUSW3,Augusta 5NE - Eau Claire River,44.7462,-91.0535,279.2286,2021-07-22 00:00,WI_DCP
ACCG1,AUGUSTA CANAL NEAR AUGUSTA,33.5492,-82.0381,53,2010-12-07 00:00,GA_DCP
AUGM4,AUGUSTA CREEK NEAR AUGUSTA,42.3533,-85.3539,249,2010-08-30 00:00,MI_DCP
AFWW3,AUGUSTA FIRE WEATHER,44.6981,-91.1342,293,2007-12-31 00:00,WI_DCP
HBRA2,Auke Bay 11NNW - Herbert River,58.524,-134.795,21.25313,2021-02-28 00:00,AK_DCP
DCRA2,Auke Bay 22NNW - Davies Creek Ridge,58.6935,-134.8505,541.7822,2021-09-30 00:00,AK_DCP
DCVA2,Auke Bay 22NNW - Davies Creek Valley,58.6728,-134.8553,94.716995,2021-09-29 00:00,AK_DCP
TSLA2,Auke Bay 4W - Ted Stevents Lena,58.3896,-134.7696,13.334002,2021-10-04 00:00,AK_DCP
ABYA2,AUKE BAY LAB DOCK,58.3817,-134.6453,14.303621,2010-12-16 00:00,AK_DCP
AKLA2,Auke Lake  AT Auke Lake near Auke Bay,58.3861,-134.6383,21,2011-10-21 00:00,AK_DCP
BCOO3,Aumsville 1NW - Beaver Creek,44.8504,-122.8927,102.84308,2019-09-09 00:00,OR_DCP
AFDO3,Aumsville 2NE,44.8727,-122.8604,132.08223,2020-01-14 00:00,OR_DCP
ARON7,Aurora,35.3008,-76.7761,0.18495509,2021-10-15 00:00,NC_DCP
AURW3,AURORA,45.77,-88.1181,356,2008-10-17 00:00,WI_DCP
AUPC2,Aurora 11SE,39.5887,-104.6725,1861.1567,2020-08-23 00:00,CO_DCP
EKFN6,Aurora - King Ferry,42.6669,-76.6183,288.48453,2013-01-23 00:00,NY_DCP
AUSN6,Ausable River 2 E Ausable R Nr Ausable Fork,44.4514,-73.6431,161,2010-12-07 00:00,NY_DCP
CSVM4,Au Sable River 3 E Curtisville--Alcona Dam,44.5608,-83.8028,244.07913,2010-12-05 00:00,MI_DCP
RDOM4,Au Sable River 3 S Red Oak,44.6769,-84.2925,302.8348,2008-11-02 00:00,MI_DCP
